,business_id,name,chain_name,address,city,state,postal_code,latitude,longitude,stars,American,Mexican,Italian,Japanese,Chinese,Thai,Mediterranean,French,Vietnamese,Greek,Indian,Korean,Hawaiian,African,Spanish,Middle Eastern,Other,age,review_count_16_19,review_normalized,pos,neg,neutral,pos_norm,neg_norm,neutral_norm,bi_goodfood_text,bi_goodloc_text,bi_bad_text,Delivery,RestaurantsPriceRange2,OutdoorSeating,HasTV,Touristy,Hipster,Romantic,Divey,Intimate,Trendy,Upscale,Classy,Casual,Alc_None_served,Alc_beer_and_wine,Alc_full_bar,open_breakfast,open_lunch,open_dinner,open_hours_meals,displayed_open_hours,is_crowded,is_chain,is_open,operation_years
0,248ccWwT6bFbR6am5w391A,100 Pizzitas,,900 E 7th St,Austin,TX,78702,30.2665554,-97.7330325,4,0,0,0,0,0,0,1,0,0,0,0,0,0,0,1,0,0,3,34,11.33,23,5,6,7.67,1.67,2,0,4,1,1,2,1,1,0,0,0,0,0,0,0,0,1,0,1,0,0,1,1,2,1,1,0,0,1
1,FwO183blfDg8g6sFv-NTsQ,15th Street Cafe,,303 W 15th St,Austin,TX,78701,30.2773681,-97.7426463,3.5,0,0,0,0,0,0,0,0,0,0,0,0,0,0,0,0,1,10,5,0.5,4,1,0,0.4,0.1,0,2,0,0,0,2,1,1,0,0,0,0,0,0,0,0,0,0,0,1,0,0,0,0,0,1,0,0,3
2,cmFvz2m5NIyq9PAo4-qCGA,1776 Cheesesteak,,1505 Town Creek Dr,Austin,TX,78741,30.2416861,-97.7268397,4,1,0,0,0,0,0,0,0,0,0,0,0,0,0,0,0,0,5,74,14.8,53,14,7,10.6,2.8,1.4,6,3,2,1,2,1,1,0,0,0,1,0,0,0,0,1,0,0,1,1,1,1,3,1,1,0,1,0
3,hpAOH8cmY5WHjnl8jGQ1dA,1886 Cafe & Bakery,,604 Brazos St,Austin,TX,78701,30.268032,-97.74195,4,1,0,0,0,0,0,0,0,0,0,0,0,0,0,0,0,0,15,216,14.4,163,33,20,10.87,2.2,1.33,30,34,12,0,2,0,0,0,0,0,0,0,0,0,1,0,0,0,1,1,1,0,2,1,1,0,1,0
4,Qc18dZxkWKd3MuP90X8tgA,1st Choice Mediterranean & Moroccan Food,,403 E 6th St,Austin,TX,78701,30.2667569,-97.7391877,4.5,0,0,0,0,0,0,1,0,0,0,0,0,0,0,0,0,0,4,14,3.5,13,1,0,3.25,0.25,0,4,1,1,1,1,0,0,0,0,0,0,0,0,0,0,0,1,0,0,0,0,1,1,1,1,0,0,3
5,QzFBu9Zj5zS-sWyrmysEOQ,24 Diner,,"600 N Lamar Blvd, Ste 200",Austin,TX,78703,30.27192193,-97.75419384,3.5,1,0,0,0,0,0,0,0,0,0,0,0,0,0,0,0,0,11,595,54.09,386,134,75,35.09,12.18,6.82,145,115,38,1,2,1,1,0,0,0,0,0,0,0,0,1,0,0,1,1,1,1,3,1,1,0,1,0
6,xFsKWQXoZsvj6DHu2A6frQ,290 West Club,,12013 W Hwy 290,Austin,TX,78737,30.21065471,-97.96886367,3.5,1,0,0,0,0,0,0,0,0,0,0,0,0,0,0,0,0,9,11,1.22,9,2,0,1,0.22,0,0,4,1,0,2,1,1,0,0,0,0,0,0,0,0,0,0,0,1,0,1,1,2,1,1,0,0,3
7,1tepUnoMCFEVMNE26ijYRQ,2N1 Salad Bar and Grill,,901 W Braker Ln,Austin,TX,78758,30.382948,-97.689198,4.5,1,1,0,0,0,0,0,0,0,0,0,0,0,0,0,0,0,4,89,22.25,81,5,3,20.25,1.25,0.75,11,10,0,1,1,0,0,0,0,0,0,0,0,0,0,1,1,0,0,1,1,1,3,1,1,0,1,0
8,3sAFxULUcjyPzj3G7YPwiA,3 Train Pizzeria,,8127 Mesa Dr,Austin,TX,78759,30.3730985,-97.755525,3.5,0,0,0,0,0,0,0,0,0,0,0,0,0,0,0,0,1,4,51,12.75,31,15,5,7.75,3.75,1.25,3,5,0,1,2,0,0,0,0,0,0,0,0,0,0,0,0,1,0,0,1,1,2,1,1,0,0,3
9,JhnIQa0_mWbYsntdrST31A,3 Woks Down,,"1914 Guadalupe, Ste B",Austin,TX,78705,30.2826322,-97.7424186,4,0,0,0,0,1,0,0,0,0,0,0,0,0,0,0,0,0,2,43,21.5,29,9,5,14.5,4.5,2.5,10,2,0,0,1,1,1,0,0,0,0,0,0,0,0,1,1,0,0,0,1,1,2,1,1,0,0,2
10,ff9xAuZ3-9iljMexfkf3yA,34th Street Cafe,,1005 W 34th St,Austin,TX,78705,30.3026593,-97.7452988,3.5,1,0,0,0,0,0,0,0,0,0,0,0,0,0,0,0,0,14,24,1.71,13,10,1,0.93,0.71,0.07,5,1,1,1,2,1,1,0,0,0,0,0,0,0,1,0,0,1,0,0,1,1,2,1,1,0,1,0
11,cXPM7gRVNhAVBk_QGE4Nmg,360 Pizza,360 Pizza,"6203 N Capital Of Texas Hwy, Ste A100",Austin,TX,78731,30.36055619,-97.78949709,4,0,0,1,0,0,0,0,0,0,0,0,0,0,0,0,0,0,7,83,11.86,50,28,5,7.14,4,0.71,4,4,7,1,2,1,1,0,0,0,0,0,0,0,0,1,0,1,0,0,1,1,2,1,0,1,1,0
12,bUzFOiNj1y5xxazKo35CUA,360 Pizza,360 Pizza,"2712 Bee Caves Rd, Ste 106",Rollingwood,TX,78746,30.2716475,-97.7862018,4,0,0,0,0,0,0,0,0,0,0,0,0,0,0,0,0,1,4,28,7,19,6,3,4.75,1.5,0.75,2,5,2,1,1,1,1,0,0,0,0,0,0,0,0,0,1,0,0,0,1,1,2,1,1,1,1,0
13,4eBO5WLoulGlxoArVLbvag,360 Pizza,360 Pizza,2107 Kinney Ave,Austin,TX,78704,30.24849,-97.770414,3.5,0,0,0,0,0,0,0,0,0,0,0,0,0,0,0,0,1,6,89,14.83,51,28,10,8.5,4.67,1.67,5,6,10,1,2,1,1,0,0,0,0,0,0,0,0,1,0,1,0,0,0,0,0,0,1,1,1,0
14,r7lqPcx9h9hluN_YLsFsew,360 UNO,,"3801 N Capital Of Texas Hwy, Ste G-100",Austin,TX,78746,30.33656931,-97.80383504,4,1,0,1,0,0,0,0,0,0,0,0,0,0,0,0,0,0,13,102,7.85,67,23,12,5.15,1.77,0.92,28,23,6,1,2,1,1,0,0,0,0,0,0,0,1,0,0,1,0,1,1,1,3,1,0,0,1,0
15,wFMBTGuHhI7c3_Pntl5LLw,3rd Eye Lounge & Elixir Bar,,1701 Toomey Rd,Austin,TX,78702,30.2644322,-97.76155852,5,0,0,0,0,0,0,0,0,0,0,0,0,0,0,0,0,1,4,13,3.25,13,0,0,3.25,0,0,2,0,0,0,2,0,0,0,0,0,0,0,0,0,0,0,1,0,0,1,1,1,3,1,1,0,1,0
16,_njeaLgMzbaVT5VGUb_YTg,40 North,,900 W 10th St,Austin,TX,78703,30.2749757,-97.7517051,4.5,0,0,0,0,0,0,0,0,0,0,0,0,0,0,0,0,1,6,127,21.17,111,5,11,18.5,0.83,1.83,25,8,3,0,2,1,1,0,0,0,0,0,0,0,0,1,0,1,0,0,0,1,1,1,1,0,1,0
17,Ink65jx0wKAIjhklhWysHw,400 Rabbits Bar,,5701 Slaughter Ln,Austin,TX,78739,30.2005761,-97.8691415,3.5,0,1,0,0,0,0,0,0,0,0,0,0,0,0,0,0,0,8,23,2.88,10,10,3,1.25,1.25,0.38,6,0,3,0,2,1,1,0,0,0,0,1,0,0,1,1,0,0,1,0,1,1,2,1,1,0,1,0
18,fxWDgnWbaaMbRYAm4HhHXw,416 Bar & Grille,,"5011 Burnet Rd, Ste 150",Austin,TX,78756,30.3214003,-97.7387718,3.5,1,0,0,0,0,0,0,0,0,0,0,0,0,0,0,0,0,3,26,8.67,13,12,1,4.33,4,0.33,5,4,1,0,2,0,0,0,0,0,0,0,0,0,0,0,0,0,1,1,1,1,3,1,1,0,0,1
19,McYWJIorYqqwtvWmM3CdLA,5000 Burnet,,5000 Burnet Rd,Austin,TX,78756,30.3211689,-97.7395166,4,0,0,0,0,0,0,0,0,0,0,0,0,0,0,0,0,1,4,22,5.5,18,3,1,4.5,0.75,0.25,4,2,1,1,1,1,1,0,0,0,0,0,0,0,0,0,1,0,0,1,1,1,3,1,1,0,1,0
20,0trONnT5XH95V5fFWiJH5Q,68 Degrees Kitchen,,2401 Lake Austin Blvd,Austin,TX,78703,30.2778941,-97.7729578,4,0,0,1,0,0,0,1,0,0,0,0,0,0,0,0,0,0,4,99,24.75,59,17,23,14.75,4.25,5.75,25,14,7,1,2,1,1,0,0,0,0,0,0,0,1,0,0,1,0,0,0,1,1,1,1,0,1,0
21,YvguawotT_M4nqRwbASIFQ,7-Eleven,7-Eleven,9200 Burnet Rd,Austin,TX,78758,30.37596901,-97.72657372,4.5,0,0,0,0,0,0,0,0,0,0,0,0,0,0,0,0,1,9,4,0.44,3,1,0,0.33,0.11,0,0,1,0,0,1,1,1,0,0,0,0,0,0,0,0,0,0,1,0,0,0,0,0,0,1,1,0,3
22,oHxii55IC8olE5JxHPEZ2A,7-Eleven,7-Eleven,2408 San Gabriel,Austin,TX,78705,30.28875444,-97.74797902,3,0,0,0,0,0,0,0,0,0,0,0,0,0,0,0,0,1,3,3,1,2,1,0,0.67,0.33,0,0,0,0,0,1,0,0,0,0,0,0,0,0,0,0,0,0,1,0,0,0,0,0,0,1,1,0,1
23,YPkzxHKbnTWuvPcwVI7ulw,827 Rays Kitchen + Cellar,,3519 Ranch Road 620 N,Austin,TX,78734,30.39639149,-97.93065574,4,0,0,0,0,0,0,0,1,0,0,0,0,0,0,0,0,0,4,126,31.5,82,25,19,20.5,6.25,4.75,35,22,11,0,3,1,1,0,0,0,0,0,0,0,0,0,0,0,1,0,1,1,2,1,0,0,1,0
24,E89dktCrksEXjLHTX8QIIg,888 Mini Cafe,,1007 S Congress Ave,Austin,TX,78704,30.254147,-97.747667,3.5,0,0,0,0,0,1,0,0,1,0,0,0,0,0,0,0,0,6,38,6.33,26,9,3,4.33,1.5,0.5,5,2,1,1,1,1,1,0,0,0,0,0,0,0,0,1,1,0,0,0,1,1,2,1,1,0,0,3
25,XNrAtQFU4vl9NA8GTlNonA,888 Pan Asian Restaurant,,"2400 E Oltorf St, Ste 1",Austin,TX,78741,30.22961936,-97.72996869,4,0,0,0,0,1,1,0,0,1,0,0,0,0,0,0,0,0,13,876,67.38,701,104,71,53.92,8,5.46,226,171,34,0,2,0,0,0,0,0,0,0,0,0,1,1,0,1,0,0,1,1,2,1,1,0,1,0
26,l_u7FTmjctEbwjB7dR96Kw,A&W Restaurant,,5600 Cameron Rd,Austin,TX,78723,30.313797,-97.704568,3.5,1,0,0,0,0,0,0,0,0,0,0,0,0,0,0,0,0,10,18,1.8,11,5,2,1.1,0.5,0.2,7,2,0,0,1,0,0,0,0,0,0,0,0,0,0,0,1,0,0,0,0,1,1,1,1,0,1,0
27,Mff1wOdZicJYPLDjMeltTA,A+A Sichuan China,,"8650 Spicewood Springs Rd, Ste 133D",Austin,TX,78759,30.432524,-97.770309,3.5,0,0,0,0,1,0,0,0,0,0,0,0,0,0,0,0,0,10,96,9.6,48,37,11,4.8,3.7,1.1,10,6,8,1,2,0,0,0,0,0,0,0,0,0,1,1,0,1,0,0,1,1,2,1,1,0,1,0
28,knOY5Nt5GlmIxAadPlirvQ,ñoños tacos,,102 W Powell Ln,Austin,TX,78753,30.34803497,-97.70328116,4.5,0,1,0,0,0,0,0,0,0,0,0,0,0,0,0,0,0,6,112,18.67,100,1,11,16.67,0.17,1.83,19,6,2,1,1,1,1,0,0,0,0,0,0,0,0,1,1,0,0,1,1,1,3,1,1,0,1,0
29,Mvbfzj05yR5dH397_7XPQw,Açai Hut,,1720 Barton Springs Rd,Austin,TX,78704,30.26355018,-97.7630338,4,0,0,0,0,0,0,0,0,0,0,0,0,0,0,0,0,1,4,99,24.75,76,19,4,19,4.75,1,4,10,1,0,2,1,1,0,0,0,0,0,0,0,0,0,1,0,0,0,1,1,2,1,1,0,1,0
30,Z_14Q5PE-CCuOlHHB9BV8g,AAA Food Equipment,,615 W Yager Ln,Austin,TX,78753,30.39942102,-97.67555199,3.5,0,0,0,0,0,0,0,0,0,0,0,0,0,0,0,0,1,12,2,0.17,1,1,0,0.08,0.08,0,0,0,0,0,1,0,0,0,0,0,0,0,0,0,0,0,1,0,0,1,1,1,3,1,1,0,1,0
31,ZM6HRhrCMYuRgYfYz1kq1Q,Abby's Mexican Food,,14500 S Interstate 35,Buda,TX,78610,30.0947656,-97.8162992,4,0,1,0,0,0,0,0,0,0,0,0,0,0,0,0,0,0,6,24,4,19,3,2,3.17,0.5,0.33,9,5,1,0,1,0,0,0,0,0,0,0,0,0,0,0,1,0,0,1,1,0,2,1,0,0,1,0
32,877rZ8N0PVUaM1TS0Rpurg,Abel's North,,4001 W Parmer Ln,Austin,TX,78727,30.42382552,-97.71534073,3,1,0,0,0,0,0,0,0,0,0,0,0,0,0,0,0,0,5,18,3.6,2,13,3,0.4,2.6,0.6,3,1,4,0,2,1,1,0,0,0,0,0,0,0,0,1,0,0,1,0,1,1,2,1,1,0,1,0
33,1Aj548eb5DPb9fIF2HW32Q,Abel's On the Lake,,3825 Lake Austin Blvd,Austin,TX,78703,30.2954696,-97.7839512,2.5,1,0,0,0,0,0,0,0,0,0,0,0,0,0,0,0,0,11,254,23.09,66,160,28,6,14.55,2.55,62,31,42,1,2,1,1,0,0,0,0,0,0,0,1,1,0,0,1,0,1,1,2,1,0,0,1,0
34,wjzyQScG1gjO-VdcjeEarg,Abo Youssef,,2101 Manor Rd,Austin,TX,78722,30.283955,-97.719837,4.5,0,0,0,0,0,0,1,0,0,0,0,0,0,0,0,0,0,5,356,71.2,329,9,18,65.8,1.8,3.6,75,31,7,0,1,1,1,0,0,0,0,0,0,0,0,0,1,0,0,0,0,1,1,1,1,0,1,0
35,anIWxMvKDI4AE93c6YWMZw,Abuelo's,,"2901 S Capital Of Texas Hwy, Barton Creek Square Mall Bldg 7",Austin,TX,78746,30.254064,-97.80734,3.5,0,1,0,0,0,0,0,0,0,0,0,0,0,0,0,0,0,13,118,9.08,71,34,13,5.46,2.62,1,54,24,4,1,2,1,1,0,0,0,0,0,0,0,1,1,0,0,1,0,1,1,2,1,1,0,1,0
36,0IhXgDHqW9EPty9VSEMLOg,Agazajo's Flying Pizza & Italian Restaurant,,2406 US Hwy 183 S,Austin,TX,78744,30.213307,-97.68383,4,0,1,1,0,0,0,0,0,0,0,0,0,0,0,0,0,0,6,66,11,52,4,10,8.67,0.67,1.67,25,16,5,0,2,1,1,0,0,0,0,0,0,0,0,1,0,1,0,0,1,1,2,1,0,0,1,0
37,YIkzoQqUCoyc4kASKPqAFA,Aguilera's Mexican Restaurant,,7210 Cameron Rd,Austin,TX,78752,30.3267966,-97.6923958,4,0,1,0,0,0,0,0,0,0,0,0,0,0,0,0,0,0,11,14,1.27,10,3,1,0.91,0.27,0.09,3,2,1,1,1,0,0,0,0,0,0,0,0,0,0,0,1,0,0,1,1,1,3,1,1,0,1,0
38,PkmsrSoqd6t8iCnNopEsUw,Ah Sing Den,,1100 E 6th St,Austin,TX,78702,30.2648498,-97.7312949,3.5,0,0,0,0,1,0,0,0,0,0,0,0,0,0,0,0,0,4,187,46.75,112,56,19,28,14,4.75,50,15,17,0,2,1,1,0,1,1,0,1,1,0,1,0,0,0,1,0,0,1,1,1,1,0,1,0
39,rFFrU3-Kd0AgH4Hweu7AqA,Aimee's Super Fantazmo,,1211 E 6th St,Austin,TX,78702,30.263926,-97.729894,4,0,0,0,0,0,0,1,0,0,1,0,0,0,0,0,0,0,3,37,12.33,25,10,2,8.33,3.33,0.67,10,1,3,1,1,1,1,0,0,0,0,0,0,0,0,1,0,1,0,0,0,1,1,1,1,0,0,1
40,tHv6_4DKOV8sZnlvTrCN9Q,Al Pastor,Al Pastor,1911 E Riverside Dr,Austin,TX,78798,30.2420956,-97.7299725,4,0,1,0,0,0,0,0,0,0,0,0,0,0,0,0,0,0,13,218,16.77,165,34,19,12.69,2.62,1.46,20,18,7,0,1,1,1,0,0,0,0,0,0,0,0,1,0,1,0,1,1,1,3,1,1,1,1,0
41,M-sXssfB6aEt_HtcPaJVVw,Al Pastor,Al Pastor,3700 S Congress Ave,Austin,TX,78704,30.2264869,-97.7624294,3,0,1,0,0,0,0,0,0,0,0,0,0,0,0,0,0,0,5,2,0.4,0,2,0,0,0.4,0,0,0,0,0,1,0,0,0,0,0,0,0,0,0,0,0,1,0,0,0,0,0,0,0,1,1,0,1
42,2VJ91McOlLP_d_pSOEv_nQ,Alamo Drafthouse Cinema Ritz,Alamo Drafthouse Cinema Ritz,320 East 6th St,Austin,TX,78701,30.2674455,-97.7395692,4.5,0,0,0,0,0,0,0,0,0,0,0,0,0,0,0,0,1,14,130,9.29,101,16,13,7.21,1.14,0.93,9,18,6,0,2,0,0,0,0,0,0,0,0,0,1,0,0,0,1,0,0,0,0,0,1,1,1,0
43,tzHvGr0GbJenQ6YncaTPmg,Alamo Drafthouse Cinema Slaughter Lane,Alamo Drafthouse Cinema Ritz,5701 West Slaughter Ln,Austin,TX,78739,30.19874504,-97.868836,3.5,0,0,0,0,0,0,0,0,0,0,0,0,0,0,0,0,1,8,174,21.75,101,49,24,12.62,6.12,3,34,32,20,1,2,1,1,0,0,0,0,0,0,0,0,0,0,0,1,1,1,1,3,1,1,1,1,0
44,C0d5kzUx6C19mLcxQyhxCA,Alamo Drafthouse Cinema South Lamar,Alamo Drafthouse Cinema Ritz,1120 South Lamar Blvd,Austin,TX,78704,30.256068,-97.763324,3.5,0,0,0,0,0,0,0,0,0,0,0,0,0,0,0,0,1,6,256,42.67,138,87,31,23,14.5,5.17,41,21,10,1,2,0,0,0,0,0,0,0,0,0,1,0,0,0,1,0,1,1,2,1,1,1,1,0
45,fD5uCmtXSMilFYvqmAdZOw,Alamo Drafthouse Cinema Village,Alamo Drafthouse Cinema Ritz,"2700 West Anderson Ln, Suite 701",Austin,TX,78757,30.35963298,-97.73484114,4,0,0,0,0,0,0,0,0,0,0,0,0,0,0,0,0,1,14,126,9,74,34,18,5.29,2.43,1.29,33,21,8,0,2,1,1,0,0,0,0,0,0,0,1,0,0,0,1,0,0,0,0,0,1,1,1,0
46,qE_RTEaTWiutnrLt_x9ZBw,Alborz Persian Cuisine,,"3300 W Anderson Ln, Ste 300",Austin,TX,78757,30.36214901,-97.74229891,3.5,0,0,0,0,0,0,1,0,0,0,0,0,0,0,0,1,0,12,28,2.33,17,7,4,1.42,0.58,0.33,8,2,1,0,2,0,0,0,0,0,0,0,0,0,0,1,0,1,0,0,0,1,1,1,1,0,1,0
47,TKEmPN45epfqtNQq6wY8Dg,ALC Steaks,,1205 N Lamar Blvd,Austin,TX,78703,30.2775569,-97.750835,4,1,0,0,0,0,0,0,0,0,0,0,0,0,0,0,0,0,14,189,13.5,133,37,19,9.5,2.64,1.36,55,30,10,1,3,1,1,0,0,0,0,0,0,0,1,0,0,0,1,0,1,1,2,1,1,0,1,0
48,L64NrzjLgTP3_wPEcE8cXA,Alcomar,,1816 S 1st St,Austin,TX,78704,30.24684067,-97.756429,4,1,1,0,0,0,0,0,0,0,0,0,0,0,0,0,0,0,4,194,48.5,133,32,29,33.25,8,7.25,111,40,14,0,2,1,1,0,0,0,0,0,0,0,0,1,0,0,1,0,1,1,2,1,1,0,0,2
49,S-66gQ7_Ls0tSEtLqGvG-g,Alfredo's Mexican Food,,15608 Spring Hill Ln,Pflugerville,TX,78660,30.445739,-97.6517169,3.5,0,1,0,0,0,0,0,0,0,0,0,0,0,0,0,0,0,4,7,1.75,3,2,2,0.75,0.5,0.5,2,0,2,0,1,0,0,0,0,0,0,0,0,0,0,0,1,0,0,1,1,0,2,1,1,0,0,2
50,#NAME?,All Star Burger,,"12921 Hill Country Blvd, Ste D2-105",Austin,TX,78738,30.30930729,-97.94259917,4,0,0,0,0,0,0,0,0,0,0,0,0,0,0,0,0,1,8,121,15.12,85,23,13,10.62,2.88,1.62,19,14,4,1,2,1,1,0,0,0,0,0,0,0,1,1,0,1,0,0,1,1,2,1,1,0,1,0
51,BX2J-O891PfC_eMhNu5zmw,ALLI Mexican Cuisine,,948 Payton Gin Rd,Austin,TX,78758,30.3599465,-97.7040102,4.5,0,1,0,0,0,0,0,0,0,0,0,0,0,0,0,0,0,4,52,13,45,5,2,11.25,1.25,0.5,18,10,4,0,1,0,0,0,0,0,0,0,0,0,0,1,1,0,0,1,1,0,2,1,1,0,1,0
52,sxzueSzq3yUSaR36se-_hw,Alma's Tacos,,8213 Brodie Ln,Austin,TX,78745,30.200864,-97.838024,4,0,1,0,0,0,0,0,0,0,0,0,0,0,0,0,0,0,6,54,9,40,9,5,6.67,1.5,0.83,10,1,4,0,1,1,1,0,0,0,0,0,0,0,0,1,1,0,0,1,1,0,2,1,1,0,1,0
53,g5Vm1meI_bFMle8sEXXygQ,Alonzo Tacos,,907 Montopolis Dr,Austin,TX,78741,30.2350457,-97.6965943,3.5,0,1,0,0,0,0,0,0,0,0,0,0,0,0,0,0,0,9,5,0.56,4,1,0,0.44,0.11,0,2,2,0,0,1,0,0,0,0,0,0,0,0,0,0,0,1,0,0,1,1,0,2,1,0,0,0,3
54,0ABraNehd1Vwb83-PFdXDw,Alpine Engine,,,Austin,TX,78701,30.268735,-97.745209,4,1,0,0,0,0,0,0,0,0,0,0,0,0,0,0,0,0,14,72,5.14,54,13,5,3.86,0.93,0.36,7,8,2,0,4,1,1,0,0,0,0,0,0,0,1,0,0,0,1,0,0,0,0,0,1,0,1,0
55,Z5Z3lzVfeuY4RShRdQiTzA,Alta's Cafe,,74 Trinity St,Austin,TX,78701,30.2605183,-97.74176106,3.5,0,0,0,0,0,0,0,0,0,0,0,0,0,0,0,0,1,7,94,13.43,51,28,15,7.29,4,2.14,6,15,7,1,2,1,1,0,0,0,0,0,0,0,0,1,0,1,0,1,1,1,3,1,1,0,1,0
56,sHgRJ37WZK7B1m5U2wV33w,Amaya's Taco Village,Amaya's Taco Village,5804 N Interstate 35,Austin,TX,78751,30.31921282,-97.70799377,3.5,0,1,0,0,0,0,0,0,0,0,0,0,0,0,0,0,0,13,161,12.38,95,54,12,7.31,4.15,0.92,47,26,10,1,1,1,1,0,0,0,0,0,0,0,0,1,0,0,1,1,1,1,3,1,1,1,1,0
57,6_XMlraOEBG5fJEFE8hHSg,Amaya's Taco Village,Amaya's Taco Village,"9900 S Ih 35 Frontage Rd, Ste 100, Bldg O",Austin,TX,78748,30.154069,-97.793727,3.5,0,1,0,0,0,0,0,0,0,0,0,0,0,0,0,0,0,6,63,10.5,33,20,10,5.5,3.33,1.67,14,9,6,0,2,1,1,0,0,0,0,0,0,0,0,1,0,0,1,1,1,1,3,1,1,1,1,0
58,jV7KL4sDxZzeko7z8xbnIQ,Amy's Ice Creams,,"9600 S I-35, Bldg C, Ste 400",Austin,TX,78748,30.16119981,-97.79169383,3.5,0,0,0,0,0,0,0,0,0,0,0,0,0,0,0,0,1,13,36,2.77,23,8,5,1.77,0.62,0.38,3,5,1,1,1,0,0,0,0,0,0,0,0,0,0,0,1,0,0,0,1,1,2,1,1,0,1,0
59,qoXoh_b3EIj5Oo2UY7IStg,Ancho's Restaurant,,700 San Jacinto Blvd,Austin,TX,78701,30.268949,-97.74040293,4,1,0,0,0,0,0,0,0,0,0,0,0,0,0,0,0,0,13,16,1.23,12,2,2,0.92,0.15,0.15,3,3,0,1,2,0,0,0,0,0,0,0,0,0,0,0,0,0,1,0,0,1,1,1,1,0,1,0
60,YAnvqg699tciMYsqQfqMjw,Anderson's Coffee Company,,"1601 W 38th St, Ste 2",Austin,TX,78731,30.3086982,-97.7504555,4.5,0,0,0,0,0,0,0,0,0,0,0,0,0,0,0,0,1,13,46,3.54,46,0,0,3.54,0,0,2,5,1,1,2,0,0,0,0,0,0,0,0,0,0,0,1,0,0,1,1,1,3,1,1,0,1,0
61,T4GbWPx-KXi_6-xDrVT1BA,Andiamo Ristorante,,"2521 Rutland Dr, Ste 325",Austin,TX,78758,30.382337,-97.723175,4,0,0,1,0,0,0,0,0,0,0,0,0,0,0,0,0,0,13,120,9.23,84,29,7,6.46,2.23,0.54,26,24,7,1,3,0,0,0,0,0,0,1,0,0,1,0,0,1,0,0,0,1,1,1,1,0,1,0
62,n8kBconpaJJg32tGrLHeFg,Angie's Mexican Restaurant,,1307 E 7th St,Austin,TX,78702,30.2643782,-97.7286642,3,0,1,0,0,0,0,0,0,0,0,0,0,0,0,0,0,0,13,49,3.77,26,19,4,2,1.46,0.31,9,7,3,1,1,1,1,0,0,0,0,0,0,0,0,1,0,0,1,1,1,0,2,1,1,0,1,0
63,r_5oHnhySNH4CrL0hGMR2A,Annie's Cafe & Bar,Annie's Cafe and Bar,319 Congress Ave,Austin,TX,78701,30.2657316,-97.7434192,3.5,1,0,0,0,0,0,0,1,0,0,0,0,0,0,0,0,0,12,142,11.83,88,33,21,7.33,2.75,1.75,31,28,8,1,2,1,1,0,0,0,0,0,0,0,0,0,0,0,1,1,1,0,2,1,1,1,0,2
64,LWHFqFfhzaB2pVsvi1JDxQ,Annie's Cafe and Bar,Annie's Cafe and Bar,"3600 Presidential Blvd, West Terminal Gate 18, Austin-Bergstrom International Airport",Austin,TX,78719,30.20225834,-97.67018624,3,0,0,0,0,0,0,0,0,0,0,0,0,0,0,0,0,1,8,131,16.38,49,62,20,6.12,7.75,2.5,10,3,11,0,2,0,0,0,0,0,0,0,0,0,0,1,0,0,1,0,0,1,1,1,1,1,1,0
65,siuWdB-wVmQY1uQdukjxJg,Ann's Piece of Cake,,1631 Barton Springs Rd,Austin,TX,78704,30.26042537,-97.75603115,3.5,0,0,0,0,0,0,0,0,0,0,0,0,0,0,0,0,1,3,18,6,11,5,2,3.67,1.67,0.67,3,2,0,0,1,0,0,0,0,0,0,0,0,0,0,0,1,0,0,0,1,1,2,1,1,0,0,2
66,QOGnLvmRC6qMHFhjZ03vIQ,Antojitos Hondureños,Antojitos Hondureños,"7901 Cameron Rd, Ste 5C",Austin,TX,78754,30.3338353,-97.6849111,3,1,0,0,0,0,0,0,0,0,0,0,0,0,0,0,0,0,10,8,0.8,4,3,1,0.4,0.3,0.1,2,0,2,0,1,0,0,0,0,0,0,0,0,0,0,0,1,0,0,0,0,0,0,0,1,1,0,3
67,WR26CbBpFcdDUJGu_wzuig,Antojitos Hondureños El Progreso,Antojitos Hondureños,12030 N Lamar Blvd,Austin,TX,78753,30.39257927,-97.68184554,4,1,0,0,0,0,0,0,0,0,0,0,0,0,0,0,0,0,5,3,0.6,3,0,0,0.6,0,0,1,0,0,0,1,1,1,0,0,0,0,0,0,0,0,0,1,0,0,0,0,0,0,0,0,1,1,0
68,x8ssTD-nP5WRpNP08SO1iA,Antojitos La Pasadita,,10555 Hwy 290 E,Manor,TX,78653,30.34906007,-97.55826954,4.5,0,1,0,0,0,0,0,0,0,0,0,0,0,0,0,0,0,3,3,1,2,0,1,0.67,0,0.33,0,0,0,0,1,1,1,0,0,0,0,0,0,0,0,0,1,0,0,1,1,0,2,1,1,0,1,0
69,NtiDiLoIOaDwzWGabJ0qsg,Apothecary Cafe & Wine Bar,,"4800 Burnet Rd, Ste 450",Austin,TX,78756,30.31885,-97.739702,4,1,0,0,0,0,0,0,0,0,0,0,0,0,0,0,0,0,9,43,4.78,24,11,8,2.67,1.22,0.89,23,6,5,0,2,1,1,0,0,0,0,0,0,0,0,1,0,1,0,0,1,1,2,1,1,0,0,1
70,3Ztr17kcekfFczBuXEGuCQ,Apple Mart,,"2101 Wickersham Ln, Ste A",Austin,TX,78741,30.2316595,-97.7202423,3.5,0,1,0,0,0,0,0,0,0,0,0,0,0,0,0,0,0,4,12,3,6,5,1,1.5,1.25,0.25,0,2,1,0,1,0,0,0,0,0,0,0,0,0,0,0,1,0,0,1,1,1,3,1,1,0,1,0
71,K2gzZs3Lkn8K45haNlNHbQ,Applebee's Grill + Bar,Applebee's Grill + Bar,7522 N I-35 Service Rd S,Austin,TX,78752,30.337642,-97.70204,2,1,0,0,0,0,0,0,0,0,0,0,0,0,0,0,0,0,14,106,7.57,20,82,4,1.43,5.86,0.29,5,10,12,1,2,0,0,0,0,0,0,0,0,0,0,1,0,0,1,0,1,1,2,1,1,1,1,0
72,VUXKae-F5k5QRkPFVex7nA,Applebee's Grill + Bar,Applebee's Grill + Bar,6315 S Interstate Highway 35,Austin,TX,78744,30.192863,-97.767511,2,1,0,0,0,0,0,0,0,0,0,0,0,0,0,0,0,0,11,56,5.09,13,38,5,1.18,3.45,0.45,8,5,4,1,2,1,1,0,0,0,0,0,0,0,0,1,0,0,1,0,1,0,1,1,1,1,1,0
73,xiNk-jgnfeNLAZSqeATHMA,Applebee's Grill + Bar,Applebee's Grill + Bar,5010 W US Hwy 290 Service Rd,Austin,TX,78735,30.23511,-97.821023,3,1,0,0,0,0,0,0,0,0,0,0,0,0,0,0,0,0,13,41,3.15,22,14,5,1.69,1.08,0.38,8,11,5,1,2,1,1,0,0,0,0,0,0,0,0,1,0,0,1,0,1,1,2,1,1,1,1,0
74,XdpppXv1Wk0ig1NRJnVpVg,Applebee's Grill + Bar,Applebee's Grill + Bar,5363 Kyle Center Dr,Kyle,TX,78640,30.010682,-97.863027,2,1,0,0,0,0,0,0,0,0,0,0,0,0,0,0,0,0,8,58,7.25,14,40,4,1.75,5,0.5,9,5,7,1,2,0,0,0,0,0,0,0,0,0,0,1,0,0,1,0,1,1,2,1,1,1,1,0
75,CfzcG3ln3ydFUUGZWzOmvg,Arab Cowboy Cafe & Hookah Lounge,,901 W 24th St,Austin,TX,78705,30.2879591,-97.7468054,3.5,0,0,0,0,0,0,0,0,0,0,0,0,0,0,0,0,1,11,30,2.73,18,11,1,1.64,1,0.09,0,2,1,0,2,1,1,0,1,0,0,0,0,0,0,1,0,1,0,0,1,0,1,1,1,0,1,0
76,CiVbwkxuFFP9KYn4kRS_OA,Arbys,Arby's,270 Old San Antonio Rd,Buda,TX,78610,30.08465337,-97.82623249,3.5,1,0,0,0,0,0,0,0,0,0,0,0,0,0,0,0,0,9,10,1.11,6,3,1,0.67,0.33,0.11,0,2,0,1,1,0,0,0,0,0,0,0,0,0,0,0,1,0,0,0,0,0,0,0,1,1,1,0
77,qsk7lFdgcSdKv9BD7iouLg,Arby's,Arby's,13609 N I H 35,Austin,TX,78753,30.42107782,-97.67124795,3.5,0,0,0,0,0,0,0,0,0,0,0,0,0,0,0,0,1,10,16,1.6,10,5,1,1,0.5,0.1,0,0,0,0,1,0,0,0,0,0,0,0,0,0,0,1,1,0,0,0,0,0,0,0,1,1,1,0
78,JCOFYGIw1lUY93NSScV1IQ,Arby's,Arby's,8648 Research Blvd,Austin,TX,78758,30.36335556,-97.71816394,3,1,0,0,0,0,0,0,0,0,0,0,0,0,0,0,0,0,13,18,1.38,6,10,2,0.46,0.77,0.15,2,2,1,1,1,0,0,0,0,0,0,0,0,0,0,1,1,0,0,1,1,1,3,1,1,1,1,0
79,gAdbLRS0wA6NhFF-w_QpHg,Arirang  Korean restaurant,,6801 Airport Blvd,Austin,TX,78752,30.3339806,-97.7169297,4,0,0,0,0,0,0,0,0,0,0,0,1,0,0,0,0,0,5,89,17.8,68,9,12,13.6,1.8,2.4,27,12,11,0,2,0,0,0,0,0,0,0,0,0,0,1,0,1,0,1,1,1,3,1,1,0,0,2
80,0AiTpuva7RkYZfKRnhqHYw,Arlan's Market,,7108 Woodrow Ave,Austin,TX,78757,30.34301105,-97.72561127,3,0,0,0,0,0,0,0,0,0,0,0,0,0,0,0,0,1,4,21,5.25,12,8,1,3,2,0.25,1,1,0,1,2,0,0,0,0,0,0,0,0,0,0,0,1,0,0,1,1,0,2,1,0,0,1,0
81,Vqhv-LUPrvmO9r2Z3xxNRw,Arlo's,Arlo's,2908 Fruth St,Austin,TX,78705,30.295514,-97.741746,4.5,0,0,0,0,0,0,0,0,0,0,0,0,0,0,0,0,1,4,123,30.75,107,9,7,26.75,2.25,1.75,13,4,5,1,2,1,1,0,1,0,0,0,1,0,0,1,1,0,0,0,1,1,2,1,1,1,1,0
82,SWdiMa_8Oq9FIAKB1sJ0hw,Arlo's,Arlo's,900 Red River St,Austin,TX,78701,30.269513,-97.736244,4.5,0,0,0,0,0,0,0,0,0,0,0,0,0,0,0,0,1,9,435,48.33,370,39,26,41.11,4.33,2.89,49,20,17,1,1,0,0,0,1,0,0,0,0,0,0,1,0,0,1,0,1,0,1,1,1,1,1,0
83,AmXr5hVzV194fpTaNwaeIQ,Aroi Thai Cuisine,,12024 W Hwy 290,Austin,TX,78737,30.20856902,-97.97473517,4,0,0,0,0,0,1,0,0,0,0,0,0,0,0,0,0,0,6,67,11.17,52,11,4,8.67,1.83,0.67,19,4,3,0,1,1,1,0,0,0,0,0,0,0,0,1,1,0,0,0,0,1,1,1,1,0,1,0
84,UTTwgmnCPt1TIWrG_qFqbA,aRoma Italian,,3403 S Lamar Blvd,Austin,TX,78704,30.2407777,-97.7862045,3.5,0,0,1,0,0,0,0,0,0,0,0,0,0,0,0,0,0,4,98,24.5,69,22,7,17.25,5.5,1.75,54,25,2,0,2,1,1,0,0,0,0,0,1,0,0,0,0,0,1,0,1,1,2,1,1,0,0,2
85,OfgCuP2QN165d-EsrCCIYg,Arpeggio Grill,,6619 Airport Blvd,Austin,TX,78752,30.3309659,-97.7155318,4,0,0,0,0,0,0,1,0,0,1,0,0,0,0,0,0,0,13,256,19.69,202,37,17,15.54,2.85,1.31,59,36,12,1,2,1,1,0,0,0,0,0,0,0,1,1,1,0,0,0,1,1,2,1,1,0,1,0
86,VopVmZt1_7gJ3jinhLh0tw,Art of Tacos,,75 Rainey St,Austin,TX,78701,30.2583972,-97.7385941,3.5,0,1,0,0,0,0,0,0,0,0,0,0,0,0,0,0,0,6,56,9.33,24,26,6,4,4.33,1,7,3,2,1,1,1,1,0,0,0,1,0,0,0,0,1,1,0,0,0,1,0,1,1,1,0,0,1
87,tZfQ_H2Gx96pLhMvNcUMOw,Artessano,,1211 E 6th St,Austin,TX,78702,30.2639683,-97.7299105,4.5,1,0,0,0,0,0,0,0,0,0,0,0,0,0,0,0,0,5,78,15.6,71,6,1,14.2,1.2,0.2,16,4,0,1,1,1,1,0,0,0,0,0,0,0,0,1,1,0,0,1,1,0,2,1,1,0,1,0
88,eZE0FdYB9rUvbuPS4fNyYA,Arturo's Underground Cafe,,314 W 17th St,Austin,TX,78701,30.2797094,-97.74192,4.5,0,1,0,0,0,0,0,0,0,0,0,0,0,0,0,0,0,13,420,32.31,362,30,28,27.85,2.31,2.15,114,63,17,0,2,1,1,0,0,0,0,0,0,0,0,1,0,1,0,1,1,0,2,1,1,0,1,0
89,gbj4zkQsmJE-BilP9SleJg,Asahi Imports,,6105 Burnet Rd,Austin,TX,78757,30.33633,-97.7389967,4.5,0,0,0,1,0,0,0,0,0,0,0,0,0,0,0,0,0,14,83,5.93,83,0,0,5.93,0,0,6,16,0,1,2,0,0,0,0,0,0,0,0,0,0,0,1,0,0,1,1,1,3,1,1,0,1,0
90,4ksUZLtZW05zIaNKzAxi4g,Asia Cafe,,"8650 Spicewood Springs Rd, Ste 114A",Austin,TX,78759,30.4328483,-97.770534,4,0,0,0,0,1,0,0,0,0,0,0,0,0,0,0,0,0,13,254,19.54,184,43,27,14.15,3.31,2.08,47,14,20,1,2,0,0,0,0,0,0,0,0,0,1,1,1,0,0,0,1,1,2,1,1,0,1,0
91,gyVmxr4RsrZQuF0xwCyHDQ,Asia Chinese Restaurant,,"1931 E Ben White Blvd, Ste 300",Austin,TX,78741,30.2154135,-97.7449381,3,0,0,0,0,1,0,0,0,1,0,0,0,0,0,0,0,0,13,34,2.62,13,19,2,1,1.46,0.15,1,0,4,1,1,0,0,0,0,0,0,0,0,0,0,1,1,0,0,0,1,1,2,1,1,0,1,0
92,jUg2c-0F9AgG_Pg2rU56ww,Asia Market,,"8650 Spicewood Springs Rd, Ste 115",Austin,TX,78759,30.4328483,-97.770534,4,0,0,0,0,1,0,0,0,0,0,0,0,0,0,0,0,0,14,40,2.86,29,3,8,2.07,0.21,0.57,6,5,1,1,1,0,0,0,0,0,0,0,0,0,0,0,1,0,0,0,1,1,2,1,1,0,1,0
93,ASeEqFm17iLYqb6QhC3fKA,Asiana Indian Cuisine,,"801 E William Cannon Dr, Ste 205",Austin,TX,78745,30.19050549,-97.77247468,4.5,0,0,0,0,0,0,0,0,0,0,1,0,0,0,0,0,0,8,352,44,297,42,13,37.12,5.25,1.62,69,43,10,1,2,0,0,0,0,0,0,0,0,0,0,1,0,1,0,0,0,1,1,1,1,0,1,0
94,7iU8fc5BcQi7BJNBOWjKkA,Aster's Ethiopian Restaurant,,2804 N I-35,Austin,TX,78722,30.2872618,-97.7250178,4.5,0,0,0,0,0,0,0,0,0,0,0,0,0,0,0,0,1,13,123,9.46,111,6,6,8.54,0.46,0.46,28,20,4,1,2,1,1,0,0,0,0,0,0,0,0,1,0,1,0,0,1,1,2,1,1,0,1,0
95,ojHIGVvaz3koIzgnrCb21Q,ASTI Trattoria,,"408 E 43rd St, Ste C",Austin,TX,78751,30.3050016,-97.7262959,3.5,0,0,1,0,0,0,0,0,0,0,0,0,0,0,0,0,0,14,91,6.5,65,15,11,4.64,1.07,0.79,23,21,4,0,2,1,1,0,0,1,0,0,0,0,1,0,0,1,0,0,1,1,2,1,1,0,1,0
96,tUQOptBIGrpCi8f6l9QEbw,Athenian Bar & Grill,,600 Congress Ave,Austin,TX,78701,30.26844056,-97.74349269,3.5,0,0,0,0,0,0,1,0,0,1,0,0,0,0,0,0,0,13,38,2.92,25,6,7,1.92,0.46,0.54,13,1,4,0,2,1,1,0,0,0,0,0,0,0,0,1,0,0,1,0,1,1,2,1,1,0,0,2
97,d_bjYQokdaZSY5S-aFxy1A,ATX Boudain Hut,,3808 S Congress Ave,Austin,TX,78704,30.22558797,-97.76260966,4,0,0,0,0,0,0,0,0,0,0,0,0,0,0,0,0,1,6,28,4.67,14,8,6,2.33,1.33,1,7,0,1,0,1,1,1,0,0,0,0,0,0,0,0,1,1,0,0,0,1,1,2,1,1,0,1,0
98,v2jOSU0rElpgLYXwWD5dMQ,ATX Jamaican Grill,,2201 S 1st St,Austin,TX,78704,30.25522794,-97.72004329,4.5,0,0,0,0,0,0,0,0,0,0,0,0,0,0,0,0,1,3,36,12,30,2,4,10,0.67,1.33,4,2,3,0,1,1,1,0,0,0,0,0,0,0,0,0,1,0,0,0,1,1,2,1,1,0,0,2
99,DeCFSjstEikMnBeD_vc8aw,Auntie Anne's,Auntie Anne's,"3600 Presidential Blvd, Ste 204, Austin-bergstrom International Airport",Austin,TX,78719,30.20222,-97.665976,3,0,0,0,0,0,0,0,0,0,0,0,0,0,0,0,0,1,10,7,0.7,2,4,1,0.2,0.4,0.1,0,0,0,0,1,0,0,0,0,0,0,0,0,0,0,0,1,0,0,1,1,1,3,1,1,1,0,2
100,Q7JzglScARtRgfKDoBQkLw,Auntie Anne's,Auntie Anne's,2901 S Capital Of Texas Hwy,Austin,TX,78746,30.2573622,-97.8072249,2,0,0,0,0,0,0,0,0,0,0,0,0,0,0,0,0,1,8,5,0.62,1,4,0,0.12,0.5,0,0,0,0,1,1,0,0,0,0,0,0,0,0,0,0,0,1,0,0,0,0,0,0,0,1,1,1,0
101,c2l14RZhwAsOTk42Q_2sWg,Aussie's Grill & Beach Bar,,306 Barton Springs Rd,Austin,TX,78704,30.2590108,-97.7482272,3,1,0,0,0,0,0,0,0,0,0,0,0,0,0,0,0,0,14,61,4.36,26,26,9,1.86,1.86,0.64,11,12,4,1,2,1,1,0,0,0,0,0,0,0,0,1,0,0,1,0,1,0,1,1,1,0,1,0
102,EmIpleattjVwdqncgAbsQw,Austin Ale House,,301 W 6th St,Austin,TX,78701,30.2684429,-97.745511,3.5,1,0,0,0,0,0,0,0,0,0,0,0,0,0,0,0,0,7,117,16.71,74,20,23,10.57,2.86,3.29,45,34,8,0,2,0,0,0,0,0,0,0,0,0,0,1,0,0,1,0,1,1,2,1,1,0,1,0
103,mUPGTM4KZCyDpkqsZ-eKsg,Austin Beer Garden Brewing Company,,1305 W Oltorf St,Austin,TX,78704,30.24537536,-97.7689108,4,1,0,0,0,0,0,0,0,0,0,0,0,0,0,0,0,0,7,349,49.86,268,49,32,38.29,7,4.57,99,43,14,0,2,1,1,0,0,0,0,0,0,0,0,1,0,1,0,0,1,1,2,1,1,0,1,0
104,OMLX_afc7u2QLUfSrWXU1w,Austin Burrito Company,,13011 Shops Pkwy,Austin,TX,78738,30.3070258,-97.9457347,4,0,1,0,0,0,0,0,0,0,0,0,0,0,0,0,0,0,3,128,42.67,91,27,10,30.33,9,3.33,26,10,6,0,1,1,1,0,0,0,0,0,0,0,0,1,0,1,0,0,1,1,2,1,1,0,1,0
105,OtQpn2VRUGanWLWTCIFl_w,Austin Cake Ball,,"5310 Burnet Rd, Ste 107",Austin,TX,78756,30.32628535,-97.74058544,4,0,0,0,0,0,0,0,0,0,0,0,0,0,0,0,0,1,11,35,3.18,27,3,5,2.45,0.27,0.45,3,2,0,1,2,0,0,0,0,0,0,0,0,0,0,0,1,0,0,1,1,0,2,1,1,0,1,0
106,pIvnEut1vI2Gu_IFdF7Y4w,Austin Catering,,8530 Burnet Rd,Austin,TX,78757,30.3677295,-97.7283672,5,0,0,0,0,0,0,0,0,0,0,0,0,0,0,0,0,1,10,20,2,19,1,0,1.9,0.1,0,3,2,1,0,1,0,0,0,0,0,0,0,0,0,0,0,0,0,1,0,0,0,0,0,1,0,1,0
107,fxbUnqWlevddaua3Upw_QA,Austin City Lemons,,1511 S Congress Ave,Austin,TX,78704,30.248275,-97.749328,4.5,0,0,0,0,0,0,0,0,0,0,0,0,0,0,0,0,1,4,10,2.5,7,2,1,1.75,0.5,0.25,0,0,0,0,1,1,1,0,0,0,0,0,0,0,0,0,1,0,0,0,1,1,2,1,1,0,1,0
108,wgJ1WN_xKKEEW50O_HiFkw,Austin Convention Center,,500 E Cesar Chavez St,Austin,TX,78701,30.26357,-97.739607,4,0,0,0,0,0,0,0,0,0,0,0,0,0,0,0,0,1,13,31,2.38,22,4,5,1.69,0.31,0.38,0,1,0,0,1,1,1,0,0,0,0,0,0,0,0,0,1,0,0,0,0,0,0,0,1,0,1,0
109,8Gs5Civ8LpPKu_lc-bmn4g,Austin Daily Press,,"1900 E Martin Luther King Blvd, B",Austin,TX,78702,30.28021766,-97.72110933,4.5,0,0,0,0,0,0,0,0,0,0,0,0,0,0,0,0,1,8,157,19.62,119,20,18,14.88,2.5,2.25,33,7,7,1,1,1,1,0,1,0,0,0,0,0,0,1,1,0,0,0,1,1,2,1,1,0,1,0
110,U65ez9BbaXyqKrqI1Atviw,Austin Diner,,"5222 Burnet Rd, Ste 550",Austin,TX,78756,30.3248,-97.740158,3,0,0,0,0,0,0,0,0,0,0,0,0,0,0,0,0,1,14,62,4.43,31,25,6,2.21,1.79,0.43,18,10,5,0,1,0,0,0,0,0,0,0,0,0,0,1,0,1,0,1,1,0,2,1,1,0,1,0
111,UsEa8RzT1Tue2GdveG2jZQ,Austin Eats Food Tours,,,Austin,TX,78704,30.2456728,-97.7688358,5,0,0,0,0,0,0,0,0,0,0,0,0,0,0,0,0,1,9,166,18.44,162,1,3,18,0.11,0.33,50,4,4,0,3,0,0,0,0,0,0,0,0,0,0,0,1,0,0,1,1,1,3,1,1,0,1,0
112,hSEdxoRvJ_BiGtnUIDYRLw,Austin Java,Austin Java,3310 N Capital Of Texas Hwy,Austin,TX,78746,30.3313167,-97.8098879,3,1,0,0,0,0,0,0,0,0,0,0,0,0,0,0,0,0,6,8,1.33,2,4,2,0.33,0.67,0.33,2,0,0,0,2,1,1,0,0,0,0,0,0,0,0,0,1,0,0,1,1,1,3,1,0,1,0,2
113,ByVJzVnQbVN_pEGERKi5yw,Austin Java,Austin Java,1206 Pkwy,Austin,TX,78703,30.27754405,-97.75151968,3.5,1,0,0,0,0,0,0,0,0,0,0,0,0,0,0,0,0,13,59,4.54,33,20,6,2.54,1.54,0.46,6,6,3,1,1,1,1,0,0,0,0,0,0,0,0,1,0,0,1,1,1,0,2,1,1,1,0,2
114,R-1P_G_pskiVDqkkPF-ivA,Austin Java,Austin Java,301 W 2nd St,Austin,TX,78701,30.264979,-97.747078,3.5,1,0,0,0,0,0,0,0,0,0,0,0,0,0,0,0,0,13,108,8.31,70,30,8,5.38,2.31,0.62,14,13,7,0,2,1,1,0,0,0,0,0,1,0,0,1,0,1,0,1,1,1,3,1,1,1,1,0
115,UkuNviWHIDl0xbt7039qxA,Austin Java at Victory Medical Center,,4303 Victory Dr,Austin,TX,78704,30.23225,-97.7909428,3,0,0,0,0,0,0,0,0,0,0,0,0,0,0,0,0,1,9,2,0.22,0,2,0,0,0.22,0,0,0,0,0,1,1,1,0,0,0,0,0,0,0,0,0,1,0,0,1,1,1,3,1,1,0,1,0
116,nz-Y0iAJQKeTq8MTrApatQ,Austin Java Barton Springs,,1608 Barton Springs Rd,Austin,TX,78704,30.262408,-97.761732,3,1,1,0,0,0,0,0,0,0,0,0,0,0,0,0,0,0,14,142,10.14,70,59,13,5,4.21,0.93,27,25,11,0,2,1,1,0,0,0,0,0,0,0,0,1,0,0,1,1,1,1,3,1,1,0,0,3
117,8yk4SUzKamk_yjhMKDo7bg,Austin Kolache & Koffee Shoppe,,"7113 Burnet Rd, Ste 112",Austin,TX,78757,30.3471434,-97.73476,4.5,0,0,0,0,0,0,0,0,0,0,0,0,0,0,0,0,1,13,41,3.15,35,6,0,2.69,0.46,0,1,4,1,1,1,0,0,0,0,0,0,0,0,0,0,0,1,0,0,1,1,0,2,1,1,0,1,0
118,TWLfTjOz90_Nco-7xkhJdg,Austin Pizza Garden,,6266 W Hwy 290,Austin,TX,78735,30.2357888,-97.8589535,3.5,0,0,1,0,0,0,0,0,0,0,0,0,0,0,0,0,0,13,123,9.46,76,35,12,5.85,2.69,0.92,22,26,3,1,2,1,1,0,0,0,0,0,0,0,0,1,0,1,0,0,1,1,2,1,1,0,1,0
119,kuJVqbxkkocfVpskd_p8aw,Austin Taste Us,,,Austin,TX,78750,30.4270699,-97.8014482,4.5,0,0,0,0,0,0,0,0,0,0,0,0,0,0,0,0,1,2,17,8.5,14,2,1,7,1,0.5,2,0,1,0,2,0,0,0,0,0,0,0,0,0,0,0,1,0,0,0,0,0,0,0,0,0,0,1
120,EF0IqhJph_HNloXXqlVvLA,Austin Terrier,,3435 Greystone Dr,Austin,TX,78731,30.35733095,-97.74861089,4,0,0,0,0,0,0,0,0,0,0,0,0,0,0,0,0,1,9,117,13,84,18,15,9.33,2,1.67,35,34,7,0,2,1,1,0,0,0,0,0,0,0,0,1,0,0,1,0,0,1,1,1,1,0,1,0
121,5av9ao6Ygib4al_0-1FXuA,"Austin, Texas",,,Austin,TX,78701,30.2729209,-97.7443863,3.5,0,1,0,0,0,0,0,0,0,0,0,0,0,0,0,0,0,12,25,2.08,6,14,5,0.5,1.17,0.42,3,1,2,0,1,0,0,0,0,0,0,0,0,0,0,0,1,0,0,0,0,0,0,0,1,0,1,0
122,ylO2a6TC80g-na_fAgJ90w,Austin's Habibi,,817 W 5th St,Austin,TX,78703,30.2695734,-97.7530835,4,1,0,0,0,0,0,1,0,0,1,0,0,0,0,0,1,0,6,129,21.5,85,31,13,14.17,5.17,2.17,23,11,6,1,1,1,1,0,0,0,0,0,0,0,0,1,0,0,1,1,1,1,3,1,1,0,1,0
123,QZ_d2uVvbDePrITBpok4Sg,Austin's Pizza,Austin's Pizza,"3435 Greystone Dr, Ste 101",Austin,TX,78731,30.3573071,-97.74863094,3.5,0,0,0,0,0,0,0,0,0,0,0,0,0,0,0,0,1,13,18,1.38,8,7,3,0.62,0.54,0.23,4,1,2,1,2,1,1,0,0,0,0,0,0,0,0,1,1,0,0,0,1,1,2,1,1,1,1,0
124,CVxBZ4K41YGExcAPDhGrEg,Austin's Pizza 35th Street,Austin's Pizza,1600 W 35th St,Austin,TX,78731,30.307504,-97.750797,3,0,0,0,0,0,0,0,0,0,0,0,0,0,0,0,0,1,10,15,1.5,6,8,1,0.6,0.8,0.1,0,0,0,1,2,0,0,0,0,0,0,0,0,0,0,1,1,0,0,0,1,1,2,1,1,1,1,0
125,8gZArGU-Q1f52-TKXnim_A,Austin's Pizza Braker,Austin's Pizza,10900 Research Blvd,Austin,TX,78759,30.40208478,-97.74675157,3,0,0,0,0,0,0,0,0,0,0,0,0,0,0,0,0,1,13,28,2.15,16,9,3,1.23,0.69,0.23,1,1,2,1,2,0,0,0,0,0,0,0,0,0,0,1,1,0,0,0,1,1,2,1,1,1,1,0
126,2qeCk_tqsk67SHF8l_JOiA,Austin's Pizza Cuernavaca,Austin's Pizza,1705 N Cuernavaca Dr,Austin,TX,78735,30.3402795,-97.8631897,4,0,0,0,0,0,0,0,0,0,0,0,0,0,0,0,0,1,4,15,3.75,10,5,0,2.5,1.25,0,2,0,2,1,1,1,1,0,0,0,0,0,0,0,0,0,1,0,0,0,1,1,2,1,0,1,1,0
127,hXwzorjetfEmcwMbRS887Q,Austin's Pizza Four Points,Austin's Pizza,7301 Ranch Road 620 N,Austin,TX,78730,30.40448,-97.851499,3,0,0,0,0,0,0,0,0,0,0,0,0,0,0,0,0,1,13,29,2.23,9,18,2,0.69,1.38,0.15,1,1,3,1,2,0,0,0,0,0,0,0,0,0,0,1,1,0,0,0,1,1,2,1,1,1,1,0
128,kKR1RLWQdQKZuzawp9zfvw,Austin's Pizza Guadalupe,Austin's Pizza,2324 Guadalupe,Austin,TX,78705,30.2870193,-97.7418487,3,0,0,0,0,0,0,0,0,0,0,0,0,0,0,0,0,1,14,51,3.64,16,25,10,1.14,1.79,0.71,9,3,5,1,1,0,0,0,0,0,0,0,0,0,0,1,0,0,1,0,1,1,2,1,1,1,1,0
129,bOuivK3C0ENe76Gmot-N3A,Austin's Pizza South Lamar,Austin's Pizza,1817 S Lamar Blvd,Austin,TX,78704,30.2495924,-97.76642459,3,0,0,0,0,0,0,0,0,0,0,0,0,0,0,0,0,1,13,48,3.69,20,21,7,1.54,1.62,0.54,5,0,8,1,2,1,1,0,0,0,0,0,0,0,0,1,0,1,0,0,1,1,2,1,1,1,1,0
130,gaK3XbJSQmdKeJAtWGM_pg,Austin's Pizza Southpark Meadows,Austin's Pizza,"9900 S Ih 35, Bldg M, Ste 100",Austin,TX,78748,30.15453453,-97.7940792,2.5,0,0,0,0,0,0,0,0,0,0,0,0,0,0,0,0,1,10,26,2.6,15,10,1,1.5,1,0.1,0,0,4,1,2,1,1,0,0,0,0,0,0,0,0,1,1,0,0,0,1,1,2,1,1,1,1,0
131,nwbRTrr3uaRFeUyFLgvufw,Austin's Pizza Westlake,Austin's Pizza,3638 Bee Caves Rd,Austin,TX,78746,30.279812,-97.805392,3,0,0,0,0,0,0,0,0,0,0,0,0,0,0,0,0,1,12,7,0.58,3,2,2,0.25,0.17,0.17,1,0,0,1,2,1,1,0,0,0,0,0,0,0,0,1,1,0,0,0,1,1,2,1,1,1,1,0
132,0mWeENbi_K6quJScN79VAQ,Austin's Pizza- William Cannon,Austin's Pizza,3601 W William Cannon Dr,Austin,TX,78749,30.214024,-97.831741,3,0,0,0,0,0,0,0,0,0,0,0,0,0,0,0,0,1,13,28,2.15,6,17,5,0.46,1.31,0.38,1,0,0,1,2,0,0,0,0,0,0,0,0,0,0,1,0,1,0,0,1,1,2,1,1,1,1,0
133,LuDPW0k_L3or4NzWAgu_dQ,Avenue B Grocery,,4403 Ave B,Austin,TX,78751,30.3090393,-97.7314647,4,0,0,0,0,0,0,0,0,0,0,0,0,0,0,0,0,1,13,41,3.15,30,10,1,2.31,0.77,0.08,4,4,0,0,1,1,1,0,0,0,0,0,0,0,0,1,1,0,0,1,1,1,3,1,1,0,1,0
134,AMM36tDkea1sn8bntzyRkg,Aviary Wine & Kitchen,,"2110 S Lamar Blvd, Ste C",Austin,TX,78704,30.2483409,-97.7714256,4.5,1,0,0,0,0,0,1,0,0,0,0,0,0,0,0,0,0,13,97,7.46,78,8,11,6,0.62,0.85,39,12,4,0,2,1,1,0,0,0,0,1,0,0,1,0,0,1,0,0,1,1,2,1,1,0,1,0
135,ZF5Vefn-eUB-oceZBqpdlQ,Aviator Pizza & Drafthouse,,"6501 S Congress Ave, Ste 1-105",Austin,TX,78745,30.1955189,-97.777497,4,0,0,0,0,0,0,0,0,0,0,0,0,0,0,0,0,1,4,286,71.5,231,29,26,57.75,7.25,6.5,44,34,8,1,2,1,1,0,0,0,0,0,1,0,0,1,0,1,0,0,1,1,2,1,1,0,1,0
136,aM-FPdJicti_TzymjW3Usg,Azul Tequila,Azul Tequila,"4211 S Lamar Blvd, Ste A2",Austin,TX,78704,30.23340094,-97.7921943,3.5,0,1,0,0,0,0,0,0,0,0,0,0,0,0,0,0,0,14,105,7.5,63,37,5,4.5,2.64,0.36,37,17,5,1,2,1,1,0,0,0,0,0,0,0,1,1,0,0,1,0,1,1,2,1,1,1,1,0
137,6IeiU0e8EhxO-MnVdkuUeg,Azul Tequila,Azul Tequila,3815 Dry Creek Dr,Austin,TX,78731,30.3427586,-97.7640576,3.5,0,1,0,0,0,0,0,0,0,0,0,0,0,0,0,0,0,6,134,22.33,84,35,15,14,5.83,2.5,52,25,7,1,2,1,1,0,0,0,0,0,0,0,1,1,0,0,1,0,1,1,2,1,0,1,1,0
138,9ZoaQOzFrguNJ7hY90Dw_A,Baby Acapulco,Baby Acapulco,13609 N I H 35,Austin,TX,78753,30.423412,-97.6705,3,0,1,0,0,0,0,0,0,0,0,0,0,0,0,0,0,0,14,239,17.07,164,54,21,11.71,3.86,1.5,55,38,18,1,2,1,1,0,0,0,0,0,0,0,0,1,0,0,1,0,1,1,2,1,1,1,1,0
139,i4m839Fh2MioEu0ABMVomQ,Baby Acapulco,Baby Acapulco,5610 N I H 35,Austin,TX,78751,30.31619363,-97.70824596,2.5,0,1,0,0,0,0,0,0,0,0,0,0,0,0,0,0,0,11,29,2.64,12,12,5,1.09,1.09,0.45,7,5,4,0,2,0,0,0,0,0,0,0,0,0,0,1,0,0,1,0,1,1,2,1,1,1,0,1
140,QnjTzGGueOsdabHqvWosQA,Baby Acapulco,Baby Acapulco,"1705 S Lakeshore Blvd, Ste A",Austin,TX,78741,30.24457502,-97.72967587,3,0,1,0,0,0,0,0,0,0,0,0,0,0,0,0,0,0,13,96,7.38,58,29,9,4.46,2.23,0.69,25,16,5,1,2,1,1,0,0,0,0,0,0,0,0,1,0,0,1,0,1,1,2,1,1,1,1,0
141,R9O3UC-wk2T3hXyRLzeJQQ,Baby Acapulco,Baby Acapulco,9505 Stonelake Blvd,Austin,TX,78759,30.38670413,-97.73766171,3,0,1,0,0,0,0,0,0,0,0,0,0,0,0,0,0,0,13,215,16.54,138,63,14,10.62,4.85,1.08,61,46,12,1,2,1,1,0,0,0,0,0,0,0,0,1,0,0,1,0,1,1,2,1,1,1,1,0
142,8DaOKltvuqXnh8zPGC2MFQ,Baby Acapulco,Baby Acapulco,1628 Barton Springs Rd,Austin,TX,78704,30.2631225,-97.7623406,3.5,0,1,0,0,0,0,0,0,0,0,0,0,0,0,0,0,0,14,342,24.43,256,68,18,18.29,4.86,1.29,72,56,13,1,2,1,1,0,0,0,0,0,0,0,1,1,0,0,1,0,1,1,2,1,1,1,1,0
143,pyY0FDxwMInA8mejgYTAAQ,Baby Greens,,1508 W Anderson Ln,Austin,TX,78757,30.3522942,-97.7222151,4,1,0,0,0,0,0,0,0,0,0,0,0,0,0,0,0,0,4,96,24,59,20,17,14.75,5,4.25,8,11,6,0,2,1,1,0,0,0,0,0,0,0,0,1,1,0,0,0,1,1,2,1,1,0,1,0
144,Z5I1wDa_KnZEWQ8JSeqL0A,BackDraft Pizzeria,,2307 Kramer Ln,Austin,TX,78758,30.3910337,-97.7145576,4.5,1,0,0,0,0,0,0,0,0,0,0,0,0,0,0,0,0,5,197,39.4,181,14,2,36.2,2.8,0.4,20,13,5,1,2,1,1,0,0,0,0,0,0,0,0,1,1,0,0,0,1,1,2,1,1,0,1,0
145,qS3uYYXjlB2eznVP5yWxbQ,Backspin Texas Sports Bar & Grill,,"5000 W Slaughter Ln, Ste 206",Austin,TX,78737,30.20072396,-97.86459055,3.5,1,0,0,0,0,0,0,0,0,0,0,0,0,0,0,0,0,11,69,6.27,49,17,3,4.45,1.55,0.27,22,22,7,0,2,1,1,0,0,0,0,0,0,0,0,1,0,0,1,0,1,0,1,1,1,0,1,0
146,juSqYWdEMxciJ09YG-86QQ,Backyard Bar & Grill,,"9900 S I-35 Frontage Rd, Ste 200",Austin,TX,78748,30.1562152,-97.7929128,3,1,0,0,0,0,0,0,0,0,0,0,0,0,0,0,0,0,5,25,5,13,9,3,2.6,1.8,0.6,4,3,3,0,2,1,1,0,0,0,0,0,0,0,0,1,0,0,1,0,1,1,2,1,1,0,1,0
147,xDp2sMYGERtISGPdbSdRRA,Bacon,,900 W 10th St,Austin,TX,78703,30.274998,-97.7516813,3.5,1,0,0,0,0,0,0,0,0,0,0,0,0,0,0,0,0,7,96,13.71,68,19,9,9.71,2.71,1.29,10,9,9,1,2,1,1,0,0,0,0,0,0,0,0,1,0,1,0,0,1,0,1,1,1,0,0,1
148,kHclhx65aKjKU9NQMW3tjg,Baguette et Chocolat,,"12101 FM 2244, Bldg 6",Bee Cave,TX,78738,30.307291,-97.927277,4,0,1,0,0,0,0,0,1,0,0,0,0,0,0,0,0,0,10,207,20.7,156,34,17,15.6,3.4,1.7,39,30,11,1,1,1,1,0,0,0,0,0,0,0,1,1,1,0,0,1,1,0,2,1,1,0,1,0
149,Z_H0pY1cU5A1YIiBZ963kg,Baguette House,,10901 N Lamar Blvd,Austin,TX,78753,30.37712434,-97.68681109,4,0,0,0,0,0,0,0,0,1,0,0,0,0,0,0,0,0,12,116,9.67,80,19,17,6.67,1.58,1.42,17,9,4,0,1,1,1,0,0,0,0,0,0,0,0,1,1,0,0,1,1,1,3,1,1,0,1,0
150,UnFJuVc3TJT5mwRJ1uUYcw,Baja St Tacos & Coastal Cuisine,,1403 E 7th St,Austin,TX,78702,30.26428565,-97.72792782,4.5,0,1,0,1,0,0,0,0,0,0,0,0,0,0,0,0,0,3,23,7.67,21,1,1,7,0.33,0.33,2,3,1,1,1,1,1,0,0,0,0,0,0,0,0,0,1,0,0,0,0,1,1,1,1,0,0,2
151,JZoRdJHOCLRn012AjsLXWA,Baker St. Pub & Grill,,3003 S Lamar Blvd,Austin,TX,78704,30.2423539,-97.7832325,3,0,0,0,0,0,0,0,0,0,0,0,0,0,0,0,0,1,9,113,12.56,58,44,11,6.44,4.89,1.22,31,17,11,1,2,1,1,0,0,0,0,0,0,0,0,1,0,0,1,0,0,1,1,1,1,0,1,0
152,JFfvSm9K8EG1z34c61Agww,Balkan Cafe & Grill,,"11800 N Lamar Blvd, Bldg 3",Austin,TX,78753,30.3877257,-97.6841092,4.5,0,0,0,0,0,0,0,0,0,0,0,0,0,0,0,0,1,6,147,24.5,138,4,5,23,0.67,0.83,49,25,2,1,2,1,1,0,0,0,0,0,0,0,1,1,0,0,1,0,1,1,2,1,1,0,1,0
153,uwd2w-1FdwxLFy9EJIafFg,Bamboo Asian Grille,,6507 Jester Blvd,Austin,TX,78750,30.36937765,-97.80064799,3,0,0,0,0,1,0,0,0,1,0,0,0,0,0,0,0,0,12,6,0.5,4,1,1,0.33,0.08,0.08,3,1,0,1,2,1,1,0,0,0,0,0,0,0,0,1,0,1,0,0,1,1,2,1,0,0,0,2
154,LBgu83sZ28u8iKNqHQ9zlQ,Bamboo Bistro,Bamboo Bistro,"11101 Burnet Rd, Ste A100",Austin,TX,78758,30.39581696,-97.7196154,3.5,0,0,0,1,1,1,0,0,0,0,0,0,0,0,0,0,0,10,141,14.1,75,58,8,7.5,5.8,0.8,22,8,8,1,1,1,1,0,0,0,0,0,0,0,0,1,0,1,0,0,0,1,1,1,1,1,1,0
155,#NAME?,Bamboo Bistro West Gate,Bamboo Bistro,6818 West Gate Blvd,Austin,TX,78745,30.2076956,-97.8156256,3.5,0,0,0,0,1,1,0,0,0,0,0,0,0,0,0,0,0,7,149,21.29,96,47,6,13.71,6.71,0.86,26,22,7,1,1,0,0,0,0,0,0,0,0,0,0,1,1,0,0,0,0,1,1,1,1,1,1,0
156,xigF_jG-Jo-ACa1ZqVYBbA,Bamboo Garden,,625 W Ben White Blvd,Austin,TX,78704,30.22573201,-97.77110694,3.5,0,0,0,0,1,0,0,0,0,0,0,0,0,0,0,0,0,13,57,4.38,44,12,1,3.38,0.92,0.08,11,9,3,1,1,0,0,0,0,0,0,0,0,0,0,1,0,1,0,0,1,1,2,1,1,0,1,0
157,OIyHoyqPKKTTjXZkC2NBeA,Bananarchy,,2420 Guadalupe St,Austin,TX,78705,30.2883825,-97.7419249,4.5,0,0,0,0,0,0,0,0,0,0,0,0,0,0,0,0,1,4,71,17.75,62,2,7,15.5,0.5,1.75,3,5,4,0,1,1,1,0,0,0,0,0,1,0,0,1,1,0,0,0,1,1,2,1,1,0,1,0
158,7PZKJbMakI_WSbgA-DJUHA,Banger's Sausage House & Beer Garden,,79 81 & 81.5 Rainey St,Austin,TX,78701,30.258905,-97.738413,4,1,0,0,0,0,0,0,0,0,0,0,0,0,0,0,0,0,8,1391,173.88,1110,146,135,138.75,18.25,16.88,301,258,71,0,2,1,1,0,0,0,0,0,0,0,1,1,0,1,0,0,1,1,2,1,1,0,1,0
159,2faLQhuvFdk-fHAg9lWXeA,Banzai Sushi & Grill,,3914 N Lamar Blvd,Austin,TX,78756,30.307601,-97.741943,3.5,0,0,0,1,0,0,0,0,0,0,0,0,0,0,0,0,0,14,55,3.93,37,8,10,2.64,0.57,0.71,9,6,3,1,1,1,1,0,0,0,0,0,0,0,0,1,1,0,0,0,1,1,2,1,1,0,0,2
160,EbXMyDxKva76wdOuUWrsWg,Bar-B-Q Heaven,Bert's Bar-B-Q,519 East 7th St,Austin,TX,78701,30.2672891,-97.7373833,4,0,0,0,0,0,0,0,0,0,0,0,0,0,0,0,0,1,11,22,2,14,6,2,1.27,0.55,0.18,5,0,0,1,1,1,1,0,0,0,1,0,0,0,0,0,1,0,0,0,1,0,1,1,1,1,0,3
161,_7Jg-PLTf0d7u_IZiJ4ISw,BarChi Sushi,,206 Colorado St,Austin,TX,78701,30.265278,-97.7454714,3.5,0,0,0,1,0,0,0,0,0,0,0,0,0,0,0,0,0,10,265,26.5,171,62,32,17.1,6.2,3.2,276,36,11,0,2,1,1,0,0,0,0,0,1,0,1,0,0,0,1,0,1,1,2,1,1,0,1,0
162,HPTr7IJeeftEx8fD8dGDDQ,Baretto,,"10710 Research Blvd, Ste 314",Austin,TX,78759,30.3985974,-97.74917125,4.5,1,0,0,0,0,0,0,0,0,0,0,0,0,0,0,0,0,4,111,27.75,93,6,12,23.25,1.5,3,74,18,6,1,2,1,1,0,0,0,0,1,0,0,0,1,0,0,1,0,1,1,2,1,1,0,1,0
163,LPYACwYAeHJdQIpxEtJYvw,Barlata Tapas Bar,,"1500 S Lamar Blvd, Ste 150",Austin,TX,78704,30.25222831,-97.76446672,4,0,0,0,0,0,0,0,0,0,0,0,0,0,0,0,0,1,7,270,38.57,162,57,51,23.14,8.14,7.29,138,51,26,1,2,0,0,0,0,0,0,0,1,0,0,0,0,0,1,0,0,1,1,1,1,0,1,0
164,jRtf9gsaYNRMSdYFonE_sA,Barley Bean,Barley Bean,1500 Spyglass Dr,Austin,TX,78746,30.2584657,-97.7875819,4,0,0,0,0,0,0,0,0,0,0,0,0,0,0,0,0,1,4,8,2,5,2,1,1.25,0.5,0.25,0,2,0,0,1,1,1,0,0,0,0,0,0,0,0,0,0,1,0,0,0,0,0,0,0,1,0,2
165,SH5fAfFp6I23Hj-4pV7_fw,Barley Bean,Barley Bean,"303 Colorado Tower, Ste 100",Austin,TX,78701,30.266001,-97.744902,3.5,0,0,0,0,0,0,0,0,0,0,0,0,0,0,0,0,1,4,35,8.75,18,13,4,4.5,3.25,1,1,2,2,0,1,1,1,0,0,0,0,0,0,0,0,0,0,0,1,1,1,1,3,1,1,1,0,3
166,J8Ha6yIvGoU-E31jnCq7Ew,Barley Swine,,"6555 Burnet Rd, Ste 400",Austin,TX,78757,30.34127377,-97.73838864,4.5,1,0,0,0,0,0,0,0,0,0,0,0,0,0,0,0,0,10,429,42.9,352,38,39,35.2,3.8,3.9,116,51,28,0,3,0,0,0,0,0,0,0,1,0,1,0,0,0,1,0,0,1,1,1,1,0,1,0
167,SRwJ6tNJ6r7hQ3uQ7hIBpQ,Bartlett's,,2408 W Anderson Ln,Austin,TX,78757,30.356725,-97.73124,4,1,0,0,0,0,0,0,0,0,0,0,0,0,0,0,0,0,13,280,21.54,211,47,22,16.23,3.62,1.69,62,59,15,0,3,0,0,0,0,0,0,0,0,0,1,0,0,0,1,0,1,1,2,1,1,0,1,0
168,DywTau1l6X-Mj1VxXs6hHw,Barton Creek,,2700 Barton Creek Blvd,Austin,TX,78735,30.2894701,-97.8714373,4.5,0,1,0,0,0,0,0,0,0,0,0,0,0,0,0,0,0,8,14,1.75,13,1,0,1.62,0.12,0,4,3,1,1,2,1,1,0,0,0,0,0,0,0,0,0,0,1,0,1,1,1,3,1,0,0,1,0
169,fxPbkYIInedCJa84fKkOzw,Barton Hills Market,,1220 Barton Hills Dr,Austin,TX,78704,30.2619242,-97.7749919,4,0,0,0,0,0,0,0,0,0,0,0,0,0,0,0,0,1,13,11,0.85,7,2,2,0.54,0.15,0.15,2,0,1,0,1,0,0,0,0,0,0,0,0,0,0,0,1,0,0,1,1,1,3,1,0,0,1,0
170,BhflCXaNL7rBeUghfX5FBg,Baton Creole,,1016 E 6th St,Austin,TX,78702,30.2649666,-97.731592,4.5,0,0,0,0,0,0,0,0,0,0,0,0,0,0,0,0,1,7,100,14.29,82,10,8,11.71,1.43,1.14,26,8,7,0,2,1,1,0,1,0,0,0,0,0,0,1,0,0,1,0,1,1,2,1,1,0,1,0
171,t0tGJtvka_eiSI51TA0Ukg,Bazille,,3111 Palm Way,Austin,TX,78758,30.40224424,-97.72040286,4,1,0,0,0,0,0,0,1,0,0,0,0,0,0,0,0,0,4,59,14.75,49,7,3,12.25,1.75,0.75,23,11,3,0,2,1,1,0,0,0,0,0,0,0,1,1,0,0,1,0,1,1,2,1,1,0,1,0
172,5fN0X3Pbss6YiDZS4_ZJCg,BB Rover's Cafe & Pub,,"12636 Research Blvd, Ste B101",Austin,TX,78759,30.430867,-97.764845,3.5,1,0,0,0,0,0,0,0,0,0,0,0,0,0,0,0,0,14,31,2.21,25,5,1,1.79,0.36,0.07,10,2,2,0,1,1,1,0,0,0,1,0,0,0,0,0,0,1,0,0,1,1,2,1,1,0,1,0
173,uSEpSKMhIruSersdsEnsCg,BBQ Revolution,,510 W Oltorf St,Austin,TX,78704,30.242148,-97.758414,4,0,0,0,0,0,0,0,0,0,0,0,0,0,0,0,0,1,7,64,9.14,51,10,3,7.29,1.43,0.43,1,1,3,0,1,0,0,0,0,0,1,0,0,0,0,1,1,0,0,0,1,0,1,1,1,0,1,0
174,ygG_bZbeoyy893jzmHhPnw,BD Riley's Irish Pub Downtown,,204 E 6th St,Austin,TX,78701,30.267727,-97.741123,4,0,0,0,0,0,0,0,0,0,0,0,0,0,0,0,0,1,13,167,12.85,137,17,13,10.54,1.31,1,33,38,10,0,2,0,0,0,0,0,0,0,0,0,1,1,0,0,1,0,1,1,2,1,1,0,1,0
175,t2fvNsYiHZ0uuO_O2vClPQ,Be More Pacific,Be More Pacific,7858 Shoal Creek Blvd,Austin,TX,78757,30.3607915,-97.7414581,4,0,0,0,0,0,0,0,0,0,0,0,0,0,0,0,0,1,4,309,77.25,231,28,50,57.75,7,12.5,105,49,16,0,2,1,1,0,0,0,0,0,1,0,0,1,0,0,1,0,1,1,2,1,1,1,1,0
176,2viYD2flLcVRIAV379ae8Q,Be More Pacific,Be More Pacific,1500 E 6th St,Austin,TX,78757,30.3568213,-97.730807,3.5,0,0,0,0,0,0,0,0,0,0,0,0,0,0,0,0,1,7,13,1.86,10,1,2,1.43,0.14,0.29,5,1,0,0,1,1,1,0,0,0,0,0,0,0,0,1,0,0,1,0,0,1,1,1,1,1,0,1
177,yhBLEmeHyPec1zjwlSXO7w,Beachside Billys,,16107 Fm 2769,Austin,TX,78641,30.4415023,-97.9126029,3.5,1,0,0,0,0,0,0,0,0,0,0,0,0,0,0,0,0,12,48,4,29,15,4,2.42,1.25,0.33,9,11,0,0,2,1,1,0,0,0,0,0,0,0,0,0,0,0,1,0,1,1,2,1,0,0,1,0
178,jbSkXZE-ijMST2AkzOkuWg,Bee Cave Coffee,,"13420 Galleria Cir, Ste A110",Bee Cave,TX,78738,30.30967706,-97.93933662,3.5,0,0,0,0,0,0,0,0,0,0,0,0,0,0,0,0,1,6,71,11.83,41,19,11,6.83,3.17,1.83,6,17,3,0,1,0,0,0,0,0,0,0,0,0,0,1,1,0,0,1,1,1,3,1,1,0,0,3
179,MG6HL1VyyCwBSjMXmYpLbA,Bee Caves BBQ,,8414 Bee Caves Rd,Austin,TX,78746,30.3152937,-97.8557401,3,0,0,0,0,0,0,0,0,0,0,0,0,0,0,0,0,1,12,8,0.67,6,0,2,0.5,0,0.17,0,1,0,1,1,1,1,0,0,0,0,0,0,0,0,0,1,0,0,0,1,1,2,1,0,0,1,0
180,HMlEoeJEI1YZdP6BRyzQsw,Beijing Bistro,Beijing Bistro,100 E Parsons St,Manor,TX,78653,30.341063,-97.5577404,4,0,0,0,0,1,0,0,0,0,0,0,0,0,0,0,0,0,4,15,3.75,12,3,0,3,0.75,0,4,6,2,0,1,0,0,0,0,0,0,0,0,0,0,1,1,0,0,0,1,1,2,1,1,1,0,1
181,1-lgvJoVYrbywrf6kMYsvg,Beijing Bistro,Beijing Bistro,"3420 B Fm 967, Ste B-110",Buda,TX,78610,30.0969313,-97.878575,3.5,0,0,0,0,1,0,0,0,0,0,0,0,0,0,0,0,0,5,74,14.8,47,20,7,9.4,4,1.4,26,14,2,1,2,0,0,0,0,0,0,0,0,0,0,0,1,0,0,0,1,1,2,1,0,1,1,0
182,xvCOccoiSrnsCtSdtxmA5w,Beijing Wok,,"8106 Brodie Ln, Ste 109",Austin,TX,78745,30.20223209,-97.83870202,2.5,0,0,0,0,1,0,0,0,0,0,0,0,0,0,0,0,0,14,26,1.86,7,19,0,0.5,1.36,0,3,1,1,1,1,0,0,0,0,0,0,0,0,0,1,1,1,0,0,0,0,1,1,1,1,0,1,0
183,2OsRp8J0sogQ7RL8Zi9A2Q,Beirut,,3225 Amy Donovan Plz,Austin,TX,78758,30.3961942,-97.7279217,4.5,0,0,0,0,0,0,1,0,0,0,0,0,0,0,0,1,0,6,100,16.67,89,5,6,14.83,0.83,1,17,7,3,1,2,0,0,0,0,0,0,0,0,0,0,1,1,0,0,0,0,1,1,1,1,0,1,0
184,ODlpmSgqc8C7DN2JhQEu8A,Bella Donna Subs,,4612 Burleson Rd E,Austin,TX,78744,30.21298456,-97.73130662,4,0,0,1,0,0,0,0,0,0,0,0,0,0,0,0,0,0,13,57,4.38,41,13,3,3.15,1,0.23,5,8,4,1,1,0,0,0,0,0,0,0,0,0,0,1,1,0,0,1,1,0,2,1,1,0,1,0
185,OVN4MtGEy_H37kXOvcRmRg,Belly Up,,96 Rainy St,Austin,TX,78701,30.2608476,-97.7382623,4.5,1,0,0,0,0,0,0,0,0,0,0,0,0,0,0,0,0,5,49,9.8,40,5,4,8,1,0.8,8,3,0,0,1,1,1,0,0,0,0,0,1,0,0,1,0,0,1,0,1,0,1,1,1,0,0,3
186,Hqj40L1eMHCVoUQ8cpZa3g,Bender Bar & Grill,,"321 W Ben White Blvd, Ste 300",Austin,TX,78798,30.22427202,-97.76735193,4,1,0,0,0,0,0,0,0,0,0,0,0,0,0,0,0,0,13,83,6.38,62,13,8,4.77,1,0.62,29,17,1,0,1,1,1,0,0,0,1,0,0,0,1,1,0,0,1,0,1,1,2,1,1,0,1,0
187,gXip--EE80jF-sqdk5Aghw,Bennu Coffee,,2001 E Martin Luther King Jr Blvd,Austin,TX,78702,30.2797837,-97.719583,4,0,1,0,0,0,0,0,0,0,0,0,0,0,0,0,0,0,11,267,24.27,210,35,22,19.09,3.18,2,31,50,5,1,1,1,1,0,1,0,0,0,0,0,1,1,1,0,0,1,1,1,3,1,1,0,1,0
188,TjyQRODPQ5I9hLTxv4vlNw,Bento Picnic Grab + Go Kiosk,,"979 Springdale Rd, Ste 150",Austin,TX,78702,30.263077,-97.696377,5,0,0,0,0,0,0,0,0,0,0,0,0,0,0,0,0,1,4,17,4.25,17,0,0,4.25,0,0,1,2,0,0,2,1,1,0,0,0,0,0,0,0,0,0,1,0,0,1,1,1,3,1,1,0,0,2
189,ZWGG0i74071TIAZkYpVaaw,Bert's Bar-B-Q,,"3563 Far W Blvd, Ste 109",Austin,TX,78731,30.3529833,-97.7540208,3,0,0,0,0,0,0,0,0,0,0,0,0,0,0,0,0,1,13,22,1.69,15,6,1,1.15,0.46,0.08,3,3,3,1,1,0,0,0,0,0,0,0,0,0,0,1,1,0,0,0,1,1,2,1,1,0,1,0
190,pWHQ0Ezf4a1oMO4ooD2iAw,Bert's BBQ,,907 W 24th St,Austin,TX,78705,30.2879027,-97.7473784,4,1,0,0,0,0,0,0,0,0,0,0,0,0,0,0,0,0,14,28,2,25,2,1,1.79,0.14,0.07,5,3,1,1,1,0,0,0,0,0,0,0,0,0,0,1,1,0,0,1,1,0,2,1,1,0,1,0
191,7lshv8DNhwYhdD6Dh73ekg,Beto's Mexican Restaurant,,3518 E 7th St,Austin,TX,78702,30.2571153,-97.7021982,4,0,1,0,0,0,0,0,0,0,0,0,0,0,0,0,0,0,5,30,6,24,4,2,4.8,0.8,0.4,8,10,0,0,1,0,0,0,0,0,0,0,0,0,0,1,0,1,0,1,1,1,3,1,1,0,1,0
192,C3EzeEEebaJUo3b6skB5rw,Better Bites Bakery,,,Austin,TX,78736,30.2520856,-97.9483898,4.5,0,0,0,0,0,0,0,0,0,0,0,0,0,0,0,0,1,7,7,1,5,1,1,0.71,0.14,0.14,0,0,0,0,1,0,0,0,0,0,0,0,0,0,0,0,1,0,0,1,1,1,3,1,0,0,0,3
193,UQMRJIM_X5ZvW31GTvkagw,Big Bite,,415 W 24th St,Austin,TX,78705,30.28763116,-97.74222062,2.5,0,0,0,0,0,0,0,0,0,0,0,0,0,0,0,0,1,9,20,2.22,8,9,3,0.89,1,0.33,5,1,2,1,1,1,1,0,0,0,0,0,0,0,0,1,0,1,0,0,1,0,1,1,1,0,0,1
194,QLQtO7YozohpjDZijLp-6w,Big Country Grill,,101 N Lexington St,Manor,TX,78653,30.3413148,-97.5578292,4,1,0,0,0,0,0,0,0,0,0,0,0,0,0,0,0,0,8,24,3,18,5,1,2.25,0.62,0.12,5,1,1,0,1,0,0,0,0,0,0,0,0,0,0,1,1,0,0,0,1,1,2,1,1,0,0,2
195,DhBUJ1zHqLL-c5sZXy8nZg,Big Daddy's Burgers & Bar,,"9070 Research Blvd, Ste 101",Austin,TX,78758,30.373441,-97.728324,3.5,1,0,0,0,0,0,0,0,0,0,0,0,0,0,0,0,0,9,123,13.67,60,40,23,6.67,4.44,2.56,37,24,9,1,2,1,1,0,0,0,0,0,0,0,0,1,0,0,1,0,1,0,1,1,1,0,1,0
196,XSMEBuuozPtez9ATkTTIvQ,Big Easy Bar and Grill,,1806 E 12th St,Austin,TX,78702,30.2738255,-97.7204771,4,0,0,0,0,0,0,0,0,0,0,0,0,0,0,0,0,1,5,111,22.2,80,23,8,16,4.6,1.6,23,8,8,1,2,0,0,0,0,0,1,0,0,0,1,1,0,1,0,0,1,1,2,1,1,0,1,0
197,yVieoh-MxTE4eNzubNE9KA,Big Fat Greek Gyros,,75 Rainey St,Austin,TX,78701,30.2583972,-97.7385941,4.5,0,0,0,0,0,0,0,0,0,1,0,0,0,0,0,0,0,8,93,11.62,73,14,6,9.12,1.75,0.75,12,5,3,1,1,1,1,0,0,0,0,0,0,0,0,1,1,0,0,0,0,1,1,1,1,0,1,0
198,sfhd712zyZ-YDFV4z1xOtQ,Big O's Pit BBQ,,4707 Burnet Rd,Austin,TX,78756,30.3185639,-97.7392301,3,0,0,0,0,0,0,0,0,0,0,0,0,0,0,0,0,1,13,81,6.23,37,37,7,2.85,2.85,0.54,14,5,8,0,1,1,1,0,0,0,0,0,0,0,0,1,1,0,0,0,1,1,2,1,1,0,1,0
199,GtlDQ8GG8ykG1ion3hD92w,Big Rob's Burgers,,"130 Kirkham Cir, Ste A",Kyle,TX,78640,30.01274525,-97.89077511,4.5,0,0,0,0,0,0,0,0,0,0,0,0,0,0,0,0,1,6,144,24,116,14,14,19.33,2.33,2.33,27,20,5,0,2,1,1,0,0,0,0,0,0,0,0,1,0,1,0,0,1,1,2,1,0,0,1,0
200,Tbo5IAk7GA1-f4pZ6hz_YQ,Big Vinny's Bbq,,1800 S Congress,Austin,TX,78704,30.2459408,-97.7514741,4.5,0,0,0,0,0,0,0,0,0,0,0,0,0,0,0,0,1,4,76,19,70,4,2,17.5,1,0.5,12,6,3,1,2,1,1,0,0,0,0,0,0,0,0,1,0,0,1,0,1,1,2,1,1,0,1,0
201,2FISuMKzzKAJmjNXIvPtBg,Bikinis Sports Bar & Grill,Bikinis Sports Bar & Grill,"214 E 6th St, Ste A",Austin,TX,78701,30.2678099,-97.7406942,3,1,0,0,0,0,0,0,0,0,0,0,0,0,0,0,0,0,11,77,7,20,46,11,1.82,4.18,1,7,8,6,0,2,0,0,0,0,0,0,0,0,0,0,1,0,0,1,0,1,1,2,1,1,1,1,0
202,GNyexjhIVev2KW6bNKZb_A,Bikinis Sports Bar & Grill,Bikinis Sports Bar & Grill,6901 North Interstate 35,Austin,TX,78752,30.3297767,-97.7036561,3,1,0,0,0,0,0,0,0,0,0,0,0,0,0,0,0,0,11,2,0.18,0,2,0,0,0.18,0,0,0,0,0,2,1,1,0,0,0,0,0,0,0,0,1,0,0,1,0,1,1,2,1,1,1,0,2
203,h9G5he9SgUlTem0N6CxLsQ,Bill Miller Bar-B-Q,Bill Miller Bar-B-Q,8103 Burnet Rd,Austin,TX,78757,30.35943241,-97.72949055,3,0,0,0,0,0,0,0,0,0,0,0,0,0,0,0,0,1,13,53,4.08,17,25,11,1.31,1.92,0.85,7,4,8,0,1,0,0,0,0,0,0,0,0,0,0,1,1,0,0,1,1,1,3,1,1,1,1,0
204,dTaFmHPDkpPmVzUABgOtFw,Bill Miller Bar-B-Q,Bill Miller Bar-B-Q,709 E Ben White,Austin,TX,78704,30.2178455,-97.7558853,3,0,0,0,0,0,0,0,0,0,0,0,0,0,0,0,0,1,14,60,4.29,16,36,8,1.14,2.57,0.57,6,3,0,1,1,0,0,0,0,0,0,0,0,0,0,1,1,0,0,1,1,1,3,1,1,1,1,0
205,jEVahNRTcV0OHQPjGo7YFQ,Bill Miller Bar-B-Q,Bill Miller Bar-B-Q,8700 US Hwy 290EAST,Austin,TX,78724,30.32921642,-97.65900673,2.5,0,0,0,0,0,0,0,0,0,0,0,0,0,0,0,0,1,12,36,3,13,20,3,1.08,1.67,0.25,8,0,2,0,1,0,0,0,0,0,0,0,0,0,0,1,1,0,0,1,1,1,3,1,0,1,1,0
206,UE8hR06NwcGxJedPmApzig,Bill Miller Bar-B-Q,Bill Miller Bar-B-Q,1646 Main St,Buda,TX,78610,30.08892125,-97.82294263,2.5,0,0,0,0,0,0,0,0,0,0,0,0,0,0,0,0,1,6,32,5.33,8,21,3,1.33,3.5,0.5,4,2,7,0,1,0,0,0,0,0,0,0,0,0,0,0,1,0,0,1,1,1,3,1,1,1,1,0
207,W2i6dntpwtR2TAXWFYdwRw,Bill Miller Bar-B-Q,Bill Miller Bar-B-Q,14718 North Interstate 35,Austin,TX,78728,30.4387433,-97.6702834,3,0,0,0,0,0,0,0,0,0,0,0,0,0,0,0,0,1,11,63,5.73,21,34,8,1.91,3.09,0.73,7,6,11,1,1,0,0,0,0,0,0,0,0,0,0,1,1,0,0,1,1,1,3,1,1,1,1,0
208,lM3vTi1zXRc7sL9yfyKdfQ,Bill Miller Bar-B-Q,Bill Miller Bar-B-Q,136 Slaughter Ln,Austin,TX,78748,30.167637,-97.789791,2.5,0,0,0,0,0,0,0,0,0,0,0,0,0,0,0,0,1,13,35,2.69,8,22,5,0.62,1.69,0.38,4,0,3,0,1,0,0,0,0,0,0,0,0,0,0,1,1,0,0,1,1,1,3,1,1,1,1,0
209,Kp8dey7sWZKMU4dLJgaOQw,Billy's on Burnet,,2105 Hancock Dr,Austin,TX,78756,30.3219768,-97.7397859,4,1,0,0,0,0,0,0,0,0,0,0,0,0,0,0,0,0,13,95,7.31,72,10,13,5.54,0.77,1,22,13,6,1,2,1,1,0,0,0,0,0,0,0,0,1,0,1,0,0,1,1,2,1,1,0,1,0
210,32D9-O14iipRun5h3WzKVg,Biryani & Co.,,"11150 Research Blvd, Ste 210",Austin,TX,78759,30.406199,-97.746233,4,0,0,0,0,0,0,0,0,0,0,1,0,0,0,0,0,0,4,207,51.75,162,35,10,40.5,8.75,2.5,45,18,17,1,2,0,0,0,0,0,0,0,0,0,0,1,1,0,0,0,0,1,1,1,1,0,1,0
211,0ynqOsAyiBYICzVKdoFNiA,Biryani Pot,,12407 N Mopac Expy,Austin,TX,78758,30.41734733,-97.70409828,3.5,0,0,0,0,0,0,0,0,0,0,1,0,0,0,0,0,0,7,198,28.29,126,58,14,18,8.29,2,26,23,13,1,2,0,0,0,0,0,0,0,0,0,0,1,1,0,0,0,0,1,1,1,1,0,1,0
212,OrXh3sLrgbaumBXy0nuRfw,Biryani-N-Grill,,3601 W William Cannon Dr,Austin,TX,78749,30.21489958,-97.8333988,3,1,0,0,0,0,0,0,0,0,0,1,0,0,0,0,0,0,4,196,49,101,71,24,25.25,17.75,6,36,10,16,1,2,0,0,0,0,0,0,0,0,0,0,1,1,0,0,0,1,1,2,1,1,0,1,0
213,1VVujesB-UmR_84B5CBiOA,Biscuits + Groovy - South,Biscuits and Groovy,1210 Barton Springs Rd,Austin,TX,78704,30.2610008,-97.7575574,4.5,0,0,0,0,0,0,0,0,0,0,0,0,0,0,0,0,1,5,165,33,140,13,12,28,2.6,2.4,21,9,10,1,1,1,1,0,0,0,0,0,0,0,0,1,1,0,0,1,1,0,2,1,1,1,1,0
214,FpyyZkQ2zr7zUvhjDwSTcQ,Biscuits and Groovy,Biscuits and Groovy,5015 Duval St,Austin,TX,78751,30.31410449,-97.71969909,4,0,0,0,0,0,0,0,0,0,0,0,0,0,0,0,0,1,10,254,25.4,191,30,33,19.1,3,3.3,46,29,18,1,1,1,1,0,1,0,0,0,0,0,0,0,1,0,0,1,1,0,2,1,1,1,1,0
215,adhmQxDfyx3BaQ8jiUIB3g,Bistro Vonish,,701 E 53rd St,Austin,TX,78751,30.31524932,-97.71659684,4.5,0,0,0,0,0,0,0,0,0,0,0,0,0,0,0,0,1,5,124,24.8,114,8,2,22.8,1.6,0.4,32,8,5,0,2,1,1,0,0,0,0,0,0,0,1,1,1,0,0,0,0,1,1,1,1,0,1,0
216,g-6qv5f2Y4mVrsDD3JRkuQ,BJ's Restaurant & Brewhouse,BJ's Restaurant & Brewhouse,10515 N Mopac Expy,Austin,TX,78759,30.39221656,-97.73247107,3,1,0,0,0,0,0,0,0,0,0,0,0,0,0,0,0,0,9,164,18.22,91,54,19,10.11,6,2.11,65,29,12,1,2,1,1,0,0,0,0,0,0,0,1,1,0,0,1,0,1,1,2,1,1,1,1,0
217,EWhAVt5HIzIUk_WsVc88mQ,BJ's Restaurant & Brewhouse,BJ's Restaurant & Brewhouse,"5207 Brodie Ln, Ste 300",Sunset Valley,TX,78745,30.23167867,-97.81681609,3,1,0,0,0,0,0,0,0,0,0,0,0,0,0,0,0,0,13,141,10.85,61,60,20,4.69,4.62,1.54,32,21,9,1,2,0,0,0,0,0,0,0,0,0,1,1,0,0,1,0,1,1,2,1,1,1,1,0
218,HIhgfQtM9KXpjj1iZATxiQ,Black Sheep Lodge,,2108 S Lamar Blvd,Austin,TX,78704,30.248391,-97.7711281,3.5,1,0,0,0,0,0,0,0,0,0,0,0,0,0,0,0,0,11,144,13.09,94,33,17,8.55,3,1.55,38,31,8,1,2,1,1,0,0,0,0,0,0,0,1,1,0,0,1,0,1,1,2,1,1,0,1,0
219,KQGeS22MTsuoWdPbVrUIIw,Black Star Co-op Pub & Brewery,,"7020 Easy Wind Dr, Ste 100",Austin,TX,78752,30.33817165,-97.71884501,4,0,0,0,0,0,0,0,0,0,0,0,0,0,0,0,0,1,11,184,16.73,118,38,28,10.73,3.45,2.55,35,28,10,1,2,1,1,0,0,0,0,0,0,0,1,1,0,1,0,0,1,1,2,1,1,0,1,0
220,QHyXLbEIhPT9oi7jAiM6Kg,Black Walnut Café,Black Walnut Cafe,10817 Ranch Road 2222,Austin,TX,78730,30.3951835,-97.8475474,3,1,0,0,0,0,0,0,0,0,0,0,0,0,0,0,0,0,7,204,29.14,98,77,29,14,11,4.14,47,25,21,1,2,1,1,0,0,0,0,0,0,0,0,1,0,0,1,1,1,1,3,1,1,1,1,0
221,MwhfSbdHnfjHeqJkEtyw8w,Black Walnut Cafe,Black Walnut Cafe,"11101 Burnet Rd, Ste 150",Austin,TX,78758,30.3953741,-97.71973637,3.5,1,0,0,0,0,0,0,0,0,0,0,0,0,0,0,0,0,5,319,63.8,185,73,61,37,14.6,12.2,96,45,29,1,2,0,0,0,0,0,0,0,0,0,1,1,0,0,1,1,1,1,3,1,1,1,1,0
222,VUIsBs9j4toiv9a1krYduQ,Blackbird Bakery,,"2300 Lohman Spur, Ste 163",Austin,TX,78734,30.33838327,-97.97134786,4,0,0,0,0,0,0,0,0,0,0,0,0,0,0,0,0,1,3,26,8.67,18,7,1,6,2.33,0.33,0,0,1,0,2,0,0,0,0,0,0,0,0,0,0,1,1,0,0,1,0,0,1,1,1,0,0,1
223,G66xZComtZdsJz99LomE9g,Blackened Dragon,,1606 East 6th St,Austin,TX,78702,30.263133,-97.7259289,4.5,0,0,0,0,0,0,0,0,0,0,0,0,0,0,0,0,1,2,15,7.5,13,1,1,6.5,0.5,0.5,2,1,0,0,2,1,1,0,0,0,0,0,0,0,0,0,1,0,0,0,1,1,2,1,1,0,0,2
224,2LI_WBeTzXpWbvcWWWnZZg,Blackfinn Ameripub,,11410 Century Oaks Ter,Austin,TX,78759,30.4020769,-97.7265617,3.5,1,0,0,0,0,0,0,0,0,0,0,0,0,0,0,0,0,5,68,13.6,35,20,13,7,4,2.6,38,25,4,0,2,1,1,0,0,0,0,0,0,0,0,1,0,0,1,0,1,0,1,1,1,0,0,2
225,ShyA_yAfTtj8_WD5kZFo3g,Blenders and Bowls - Downtown,Blenders and Bowls - Downtown,206 E 4th St,Austin,TX,78701,30.265971,-97.741606,4.5,0,0,0,0,0,0,0,0,0,0,0,0,0,0,0,0,1,8,248,31,199,26,23,24.88,3.25,2.88,8,25,6,0,2,1,1,0,1,0,0,0,1,0,0,1,1,0,0,1,1,1,3,1,1,1,1,0
226,kGnsZv84_lkXsxb8P1Ga8Q,Blenders and Bowls - Westlake,Blenders and Bowls - Downtown,"3736 Bee Caves Rd, Ste 8",West Lake Hills,TX,78746,30.2808805,-97.8070957,4.5,0,0,0,0,0,0,0,0,0,0,0,0,0,0,0,0,1,4,90,22.5,72,7,11,18,1.75,2.75,9,16,2,1,1,1,1,0,0,0,0,0,1,0,0,1,1,0,0,1,1,1,3,1,1,1,1,0
227,1v0oeeD_iVfis_6VLevVMw,Blue Baker,,10000 Research Blvd,Austin,TX,78759,30.39361899,-97.74758895,3.5,0,0,0,0,0,0,0,0,0,0,0,0,0,0,0,0,1,8,106,13.25,64,28,14,8,3.5,1.75,26,14,10,1,1,1,1,0,0,0,0,0,0,0,0,1,1,0,0,1,1,0,2,1,1,0,1,0
228,U3OK4SzVzApqsYaoP7Y0gw,Blue Basil,,,Austin,TX,78759,30.401356,-97.7525352,4.5,0,0,0,0,0,1,0,0,0,0,0,0,0,0,0,0,0,8,29,3.62,20,4,5,2.5,0.5,0.62,4,0,0,1,1,0,0,0,0,0,0,0,0,0,0,0,1,0,0,0,0,1,1,1,1,0,1,0
229,t2UsCc_clm1b0Bf0kdhdoQ,Blue Cat Café,,95 Navasota St,Austin,TX,78702,30.2588134,-97.7305278,3.5,0,0,0,0,0,0,0,0,0,0,0,0,0,0,0,0,1,5,256,51.2,128,89,39,25.6,17.8,7.8,33,26,18,0,1,1,1,0,1,0,0,0,0,0,0,0,1,0,0,0,1,1,2,1,1,0,1,0
230,ZlUYovGhlMWKOnETAys3mQ,Blue Dahlia Bistro,Blue Dahlia Bistro,"3663 Bee Caves Rd, Ste 4A",Austin,TX,78746,30.27851807,-97.80769898,4,0,0,0,0,0,0,0,1,0,0,0,0,0,0,0,0,0,8,111,13.88,77,18,16,9.62,2.25,2,32,22,6,1,2,1,1,0,0,0,0,0,0,0,1,1,0,1,0,1,1,0,2,1,1,1,1,0
231,#NAME?,Blue Dahlia Bistro,Blue Dahlia Bistro,1115 E 11th St,Austin,TX,78702,30.26889,-97.728588,4,1,0,0,0,0,0,0,1,0,0,0,0,0,0,0,0,0,13,361,27.77,292,31,38,22.46,2.38,2.92,115,86,17,1,2,0,0,0,0,0,0,0,0,0,1,1,0,1,0,1,1,0,2,1,1,1,1,0
232,cq0_iRJOCzGEOoAizJ4SBQ,Blue Moon Bar & Grill,,2200 S Ih 35,Austin,TX,78704,30.2351003,-97.74173064,3.5,0,0,0,0,0,0,0,0,0,0,0,0,0,0,0,0,1,8,14,1.75,8,6,0,1,0.75,0,8,3,0,0,1,1,1,0,0,0,0,0,0,0,0,1,0,0,1,0,0,0,0,1,1,0,1,0
233,tyzCqUjCoNED9O7laCB5iw,Blue Star Kitchen + Bar,,"4800 Burnet Rd, Ste C-300",Austin,TX,78756,30.3188286,-97.7396757,3.5,1,0,0,0,0,0,0,0,0,0,0,0,0,0,0,0,0,14,78,5.57,43,23,12,3.07,1.64,0.86,18,19,9,0,2,1,1,0,0,0,0,0,0,0,0,1,0,0,1,0,1,1,2,1,1,0,0,3
234,XrPB1j9LKRPSwg7TYaZzcA,Boat House Grill,,6812 Ranch Rd 620 N,Austin,TX,78732,30.4018716,-97.8554466,3.5,1,0,0,0,0,0,0,0,0,0,0,0,0,0,0,0,0,12,55,4.58,38,9,8,3.17,0.75,0.67,7,6,0,0,1,1,1,0,0,0,0,0,0,0,0,1,0,1,0,1,1,1,3,1,1,0,0,3
235,bcraeTvyT4W30iag_1fO5A,Bobalu Cigar Company,,509 E 6th St,Austin,TX,78701,30.2665069,-97.7379252,4.5,0,0,0,0,0,0,0,0,0,0,0,0,0,0,0,0,1,12,31,2.58,26,4,1,2.17,0.33,0.08,1,4,0,0,2,0,0,0,0,0,0,0,0,0,0,0,1,0,0,0,1,1,2,1,1,0,0,3
236,ZgIPuv43YvTMqNLW6Qj9QQ,Bob's Steak & Chop House,,301 Lavaca St,Austin,TX,78701,30.26602364,-97.74604034,4,0,0,0,0,0,0,0,0,0,0,0,0,0,0,0,0,1,8,201,25.12,166,26,9,20.75,3.25,1.12,29,35,16,0,3,1,1,0,0,1,0,0,0,0,1,0,0,0,1,0,0,1,1,1,1,0,1,0
237,7giVAqE0ThYrvuTH1-1g8A,BOCA,,90 Rainey St,Austin,TX,78701,30.26035741,-97.73859788,4.5,0,0,0,0,0,0,0,0,0,0,0,0,0,0,1,0,0,4,11,2.75,9,2,0,2.25,0.5,0,1,0,2,0,1,0,0,0,0,0,0,0,0,0,0,1,0,1,0,0,1,0,1,1,1,0,0,2
238,yPTOlQ4nDXI_2CvZXtm4XA,Boiler Nine,,800 W Cesar Chavez St,Austin,TX,78701,30.266862,-97.752903,4,1,0,0,0,0,0,0,0,0,0,0,0,0,0,0,0,0,4,211,52.75,138,36,37,34.5,9,9.25,60,23,11,0,2,1,1,0,1,0,0,0,1,0,0,1,0,0,1,0,1,1,2,1,1,0,0,3
239,pd3ZfgzgN6ssR1H8Opq3uw,Bola Pizza Catering,,,Austin,TX,78749,30.2175453,-97.8558357,4,0,0,0,0,0,0,0,0,0,0,0,0,0,0,0,0,1,10,13,1.3,8,5,0,0.8,0.5,0,1,0,0,0,2,1,1,0,0,0,0,0,0,0,0,0,1,0,0,0,0,0,0,0,0,0,1,0
240,mA6OZrUXBJE68V-vGmxD7w,Bollywood Indian Grill,,11101 Burnet Rd,Austin,TX,78758,30.39563079,-97.72002664,4,0,0,0,0,0,0,0,0,0,0,1,0,0,0,0,0,0,3,71,23.67,53,14,4,17.67,4.67,1.33,20,7,3,1,2,0,0,0,0,0,0,0,0,0,0,1,1,0,0,0,0,1,1,1,1,0,0,2
241,sPr8yu7F1PVFDiPDhTb1fg,Bomb Tacos,,500 Comal St,Austin,TX,78702,30.2625474,-97.727003,3,0,1,0,0,0,0,0,0,0,0,0,0,0,0,0,0,0,8,34,4.25,14,19,1,1.75,2.38,0.12,3,1,1,0,1,1,1,0,0,0,1,0,0,0,0,1,1,0,0,0,0,1,1,1,1,0,1,0
242,dQ80ktWSRj5UIk96bRUmWw,Bombay Bistro,Bombay Bistro,10710 Research Blvd,Austin,TX,78759,30.3986895,-97.74741994,4,1,0,0,0,0,0,0,0,0,0,1,0,0,0,0,0,0,13,166,12.77,125,29,12,9.62,2.23,0.92,43,24,9,1,2,0,0,0,0,0,0,0,0,0,1,1,0,0,1,0,0,1,1,1,1,1,1,0
243,3LBiMHGe9yTtg2qZj6nFyg,Bombay Bistro,Bombay Bistro,"4200 S Lamar Blvd, Ste 300",Austin,TX,78704,30.2361178,-97.7952578,4,0,0,0,0,0,0,0,0,0,0,1,0,0,0,0,0,0,10,168,16.8,104,42,22,10.4,4.2,2.2,38,29,13,1,2,1,1,0,0,0,0,0,0,0,1,1,0,0,1,0,0,1,1,1,1,1,1,0
244,vP2axJe0_0DVe33OLm0iqw,Bombay Dhaba,,1207 S 1st St,Austin,TX,78704,30.251903,-97.753903,4.5,0,0,0,0,0,0,0,0,0,0,1,0,0,0,0,0,0,6,157,26.17,133,17,7,22.17,2.83,1.17,34,5,5,1,1,0,0,0,0,0,0,0,0,0,0,1,1,0,0,0,0,1,1,1,1,0,1,0
245,1QFM4qeamPPFlwpg0S624g,Bombay Express,,13000 N Interstate 35,Austin,TX,78753,30.41113009,-97.6760699,4,0,0,0,0,0,0,0,0,0,0,1,0,0,0,0,0,0,13,119,9.15,100,13,6,7.69,1,0.46,24,12,7,1,1,0,0,0,0,0,0,0,0,0,0,1,1,0,0,0,1,1,2,1,1,0,1,0
246,TVw4KylSjjoYqRUpnA0ueA,Bombay Grill Indian Restaurant,,"3201 Bee Caves Rd, Ste 148",Austin,TX,78746,30.27336349,-97.8003334,3.5,0,0,0,0,0,0,0,0,0,0,1,0,0,0,0,0,0,13,48,3.69,24,20,4,1.85,1.54,0.31,9,1,1,0,2,0,0,0,0,0,0,0,0,0,0,1,0,1,0,0,0,1,1,1,1,0,0,3
247,Moi9jsCSeYjpn1XnaNu39g,Bombay To Kathmandu Kitchen,,"9616 N Lamar Blvd, Ste 168",Austin,TX,78753,30.36668671,-97.69530873,4,0,0,0,0,0,0,0,0,0,0,1,0,0,0,0,0,0,5,118,23.6,93,16,9,18.6,3.2,1.8,21,11,7,1,2,1,1,0,0,0,0,0,0,0,0,0,1,0,0,0,1,1,2,1,1,0,1,0
248,3QJlJEuTVyUfBxny2yfMMA,Bombshells Restaurant & Bar,,15119 N-I35,Pflugerville,TX,78660,30.445706,-97.66647,2.5,1,0,0,0,0,0,0,0,0,0,0,0,0,0,0,0,0,6,129,21.5,50,65,14,8.33,10.83,2.33,27,20,14,0,2,1,1,0,0,0,0,0,0,0,0,1,0,0,1,0,1,0,1,1,1,0,1,0
249,oUriNcsAajhb42aOioRTqA,Bone Daddy's,,11617 Research Blvd,Austin,TX,78759,30.41571832,-97.74521744,3.5,1,0,0,0,0,0,0,0,0,0,0,0,0,0,0,0,0,14,125,8.93,61,43,21,4.36,3.07,1.5,51,17,13,1,2,0,0,0,0,0,0,0,0,0,1,1,0,0,1,0,1,1,2,1,1,0,1,0
250,_1qj4t96ekd7WDBKxZzLDg,Booty Loco's,,4209 Airport Blvd,Austin,TX,78722,30.29651099,-97.70759851,4.5,0,1,0,0,0,0,0,0,0,0,0,0,0,0,0,0,0,3,27,9,26,1,0,8.67,0.33,0,5,1,0,0,1,1,1,0,0,0,0,0,0,0,0,1,1,0,0,0,1,1,2,1,1,0,0,2
251,498F3rnpng6qv53S9diTSw,Boston Market,,"4607 Braker Ln, Ste 100",Austin,TX,78759,30.399832,-97.744997,3,1,0,0,0,0,0,0,0,0,0,0,0,0,0,0,0,0,12,48,4,19,23,6,1.58,1.92,0.5,11,5,4,1,1,0,0,0,0,0,0,0,0,0,0,1,1,0,0,0,1,1,2,1,1,0,1,0
252,xwHhz09uHHTuxJiuRbaS6Q,Boteco,,1209 E 6th St,Austin,TX,78702,30.2641113,-97.7301493,4.5,1,0,0,0,0,0,0,0,0,0,0,0,0,0,0,0,0,5,338,67.6,319,11,8,63.8,2.2,1.6,60,30,7,1,2,0,0,0,0,0,0,0,0,0,0,1,1,0,0,0,0,1,1,1,1,0,1,0
253,Tyk1gQgcAJZAxivdT0XiQg,Botticelli's,,1321 S Congress Ave,Austin,TX,78704,30.2503552,-97.7491967,4,0,0,1,0,0,0,0,0,0,0,0,0,0,0,0,0,0,13,207,15.92,162,26,19,12.46,2,1.46,67,49,7,0,2,1,1,0,0,0,0,1,0,0,1,0,0,0,1,0,0,1,1,1,1,0,1,0
254,qkpTiGcJbkNKgmCj4rmkkQ,Bouldin Creek Cafe,Bouldin Creek Cafe,1900 S 1st St,Austin,TX,78704,30.2464961,-97.756801,4.5,1,0,0,0,0,0,0,0,0,0,0,0,0,0,0,0,0,15,1121,74.73,1005,42,74,67,2.8,4.93,237,223,37,0,2,1,1,0,1,0,0,0,0,0,1,1,0,1,0,1,1,1,3,1,1,1,1,0
255,ZlM7iYJf_6yY_piw3dAM7A,Bouldin Creek Food Park,Bouldin Creek Cafe,1207 S 1st St,Austin,TX,78704,30.25166715,-97.75403559,4,0,0,0,0,0,0,0,0,0,0,0,0,0,0,0,0,1,8,3,0.38,2,1,0,0.25,0.12,0,2,0,1,1,1,0,0,0,0,0,0,0,0,0,0,0,1,0,0,0,0,0,0,0,1,1,0,3
256,4S8fTwr_KtWiC0-NS3F99w,Boulevard Grill and Sports Bar,,"3616 Far West Blvd, Ste 116",Austin,TX,78731,30.3550409,-97.7555488,3.5,1,0,0,0,0,0,0,0,0,0,0,0,0,0,0,0,0,14,37,2.64,23,8,6,1.64,0.57,0.43,15,7,2,0,1,0,0,0,0,0,0,0,0,0,0,1,0,0,1,0,1,1,2,1,1,0,1,0
257,I5USHl6e4juEcorOGi5M_A,Branch BBQ & Catering,,"1779 Wells Branch Pkwy, Ste 112",Austin,TX,78728,30.43528495,-97.67417394,3.5,0,0,0,0,0,0,0,0,0,0,0,0,0,0,0,0,1,13,18,1.38,12,5,1,0.92,0.38,0.08,2,3,1,1,1,0,0,0,0,0,0,0,0,0,0,1,0,1,0,0,1,1,2,1,1,0,1,0
258,W66gyJeOL7yimbmRHiO88Q,Brass House,,115 San Jacinto Blvd,Austin,TX,78701,30.2633475,-97.7416701,4,0,0,1,0,0,0,0,0,0,0,0,0,0,0,0,0,0,5,53,10.6,40,5,8,8,1,1.6,15,18,7,0,2,1,1,0,0,0,0,0,0,0,1,0,0,0,1,0,1,0,1,1,1,0,0,1
259,36NjlwRKos7F5dayovbXqQ,Brazos Beef,,"8222 Jamestown Dr, Ste A 109",Austin,TX,78758,30.3565415,-97.7143455,2,1,0,0,0,0,0,0,0,0,0,0,0,0,0,0,0,0,4,16,4,4,12,0,1,3,0,0,1,0,1,1,0,0,0,0,0,0,0,0,0,0,0,1,0,0,1,1,1,3,1,1,0,1,0
260,SZ0c7kkfMWlN1z7lNBoeKw,Bread Basket,,8801 W Gate Blvd,Austin,TX,78745,30.19109056,-97.83248661,3.5,0,0,0,0,0,0,0,0,0,0,0,0,0,0,0,0,1,7,13,1.86,9,3,1,1.29,0.43,0.14,2,0,0,0,1,0,0,0,0,0,0,0,0,0,0,0,1,0,0,1,1,1,3,1,0,0,1,0
261,bF8ExmkwsE3LyzZO9x8cWA,Brentwood Social House,,1601 W Koenig Ln,Austin,TX,78756,30.33220586,-97.73455933,4.5,0,0,0,0,0,0,0,0,0,0,0,0,0,0,0,0,1,4,220,55,178,19,23,44.5,4.75,5.75,33,43,6,0,1,0,0,0,0,0,0,0,0,0,0,1,0,1,0,1,1,0,2,1,1,0,1,0
262,o5bhEHs4zwKSF8pDeVTXTQ,Bribery Bakery,,"1900 Simond Ave, Ste 300",Austin,TX,78723,30.29708433,-97.70438061,3.5,0,0,0,0,0,0,0,0,0,0,0,0,0,0,0,0,1,2,103,51.5,53,30,20,26.5,15,10,16,10,2,0,2,1,1,0,0,0,0,0,0,0,0,0,0,0,1,1,1,0,2,1,1,0,0,1
263,0ismJu17MuIzEWpehtZjSw,Brick House Tavern + Tap,,11680A Research Blvd,Austin,TX,78759,30.41795068,-97.74753023,3,1,0,0,0,0,0,0,0,0,0,0,0,0,0,0,0,0,9,260,28.89,133,101,26,14.78,11.22,2.89,102,64,29,1,2,1,1,0,0,0,0,0,0,0,1,1,0,0,1,0,1,1,2,1,1,0,1,0
264,UVQRuVMW3x0_l35YXgMMbg,Brick Oven,,1209 Red River,Austin,TX,78701,30.272645,-97.7346683,3.5,0,0,1,0,0,0,0,0,0,0,0,0,0,0,0,0,0,14,74,5.29,47,18,9,3.36,1.29,0.64,12,14,4,1,2,1,1,0,0,0,0,0,0,0,0,1,0,1,0,0,1,1,2,1,1,0,1,0
265,aXBmjKXHEQt9EUapFN2REw,Brick Oven Restaurant,,"10710 Research Blvd, Ste 310",Austin,TX,78759,30.398783,-97.749098,3.5,0,0,1,0,0,0,0,0,0,0,0,0,0,0,0,0,0,14,81,5.79,57,17,7,4.07,1.21,0.5,25,20,4,1,2,1,1,0,0,0,0,0,0,0,0,1,0,1,0,0,1,1,2,1,1,0,1,0
266,TBQPw9elTnBUkO3GaM568A,Bridgepoint Cafe and Catering,,"Bridgepoint Plaza Complex, 5918 W Courtyard Dr, Ste G-100",Austin,TX,78730,30.3535402,-97.7973836,4,0,0,0,0,0,0,0,0,0,0,0,0,0,0,0,0,1,11,4,0.36,3,0,1,0.27,0,0.09,1,0,0,1,1,1,1,0,0,0,0,0,0,0,0,1,1,0,0,1,1,0,2,1,0,0,0,2
267,eFQRzw0MabeslK4NwYFjWA,Brio Tuscan Grille,,"10000 Research Blvd, Ste C",Austin,TX,78759,30.393472,-97.74808,3.5,0,0,1,0,0,0,0,0,0,0,0,0,0,0,0,0,0,8,198,24.75,93,77,28,11.62,9.62,3.5,57,31,20,1,2,1,1,0,0,0,0,0,0,0,1,0,0,0,1,0,1,1,2,1,1,0,1,0
268,KVJYqzayQuZ4IBOviuIPEg,Brooklyn Pie,Brooklyn Pie,5425 Burnet Rd,Austin,TX,78756,30.329151,-97.739602,3.5,0,0,0,0,0,0,0,0,0,0,0,0,0,0,0,0,1,5,67,13.4,39,19,9,7.8,3.8,1.8,4,1,3,1,1,1,1,0,0,0,0,0,0,0,0,1,1,0,0,0,1,1,2,1,1,1,1,0
269,5vFbxMid5ES3e-JZQlRnsg,Brooklyn Pie,Brooklyn Pie,"12601 Tech Ridge Blvd, Ste 300",Austin,TX,78753,30.40074589,-97.65773462,2.5,0,0,0,0,0,0,0,0,0,0,0,0,0,0,0,0,1,5,62,12.4,20,31,11,4,6.2,2.2,10,3,3,1,2,1,1,0,0,0,0,0,0,0,0,1,1,0,0,0,1,1,2,1,0,1,1,0
270,L2xTD0ow-SJPhXRjouq2nw,Brooklyn Pie Co.,Brooklyn Pie,9500 S I-35,Austin,TX,78748,30.16606055,-97.79312361,3.5,0,0,0,0,0,0,0,0,0,0,0,0,0,0,0,0,1,7,101,14.43,56,36,9,8,5.14,1.29,6,6,7,1,2,1,1,0,0,0,0,0,0,0,0,1,0,0,1,0,1,1,2,1,1,1,1,0
271,QCVkIE7RqSGWTiIJNr0GsA,Brotherton's Black Iron Barbecue,,"15608 Spring Hill Ln, Ste 105",Pflugerville,TX,78660,30.445739,-97.6517169,4.5,1,0,0,0,0,0,0,0,0,0,0,0,0,0,0,0,0,4,518,129.5,455,30,33,113.75,7.5,8.25,77,33,17,1,2,0,0,0,0,0,0,0,0,0,0,1,0,1,0,0,1,0,1,1,1,0,1,0
272,cxQEW0JaFDqOqkavm4zKXg,Brown's Bar-B-Que,,1901 S Lamar Blvd,Austin,TX,78704,30.2494428,-97.7669099,4.5,0,0,0,0,0,0,0,0,0,0,0,0,0,0,0,0,1,8,181,22.62,166,3,12,20.75,0.38,1.5,22,9,4,0,2,1,1,0,0,0,0,0,0,0,0,1,1,0,0,0,1,1,2,1,1,0,1,0
273,xu5WKaSv1lbJdmmUeC3Xiw,Bruegger's Bagels,,3267 Bee Cave Rd,Austin,TX,78746,30.27465252,-97.80155905,3.5,0,0,0,0,0,0,0,0,0,0,0,0,0,0,0,0,1,8,43,5.38,31,8,4,3.88,1,0.5,4,1,0,1,1,1,1,0,0,0,0,0,0,0,0,1,1,0,0,1,1,0,2,1,1,0,1,0
274,g8RrcJp2GwgslYh9v8-LMA,Bua Loy Thai Cuisine,,1211 E 6th St,Austin,TX,78702,30.263926,-97.729894,3.5,0,0,0,0,0,1,0,0,0,0,0,0,0,0,0,0,0,4,12,3,7,5,0,1.75,1.25,0,2,0,2,0,2,1,1,0,0,0,0,0,0,0,0,1,1,0,0,0,1,1,2,1,1,0,0,2
275,MAsXaIe6fwlzyEihoYvT4A,Buca di Beppo Italian Restaurant,,3612 Tudor Blvd,Austin,TX,78759,30.38457259,-97.73688958,3,0,0,1,0,0,0,0,0,0,0,0,0,0,0,0,0,0,13,183,14.08,57,105,21,4.38,8.08,1.62,31,13,30,1,2,0,0,0,0,0,0,0,0,0,0,1,0,0,1,0,1,1,2,1,1,0,1,0
276,6IAYPQjMiH0cH_1QjoDlSw,Bucket's Deli and Sports Bar,,2020 E Cesar Chavez St,Austin,TX,78702,30.2566666,-97.7227242,3.5,1,0,0,0,0,0,0,0,0,0,0,0,0,0,0,0,0,11,9,0.82,8,1,0,0.73,0.09,0,1,0,0,1,1,0,0,0,0,0,0,0,0,0,0,0,1,0,0,0,1,1,2,1,1,0,1,0
277,Y5wIVVSb_iKvMDrk2OPUfQ,Budare's Venezuelan Food,,5000 Burnet Rd,Austin,TX,78756,30.3211772,-97.7395166,4.5,1,0,0,0,0,0,0,0,0,0,0,0,0,0,0,0,0,4,92,23,85,5,2,21.25,1.25,0.5,21,7,3,0,1,1,1,0,0,0,0,0,0,0,0,1,1,0,0,0,0,1,1,1,1,0,1,0
278,OlB0841vj4V7Wje5tTtLWA,Buenos Aires Café - Este,Buenos Aires Cafe,1201 E 6th St,Austin,TX,78702,30.264207,-97.7304251,4,0,0,0,0,0,0,0,0,0,0,0,0,0,0,0,0,1,11,212,19.27,142,46,24,12.91,4.18,2.18,61,31,24,1,2,0,0,0,0,1,0,0,0,0,1,0,0,0,1,0,1,1,2,1,1,1,1,0
279,JqsgwnhfC5ly_Y7YBbfJKg,Buenos Aires Cafe,Buenos Aires Cafe,"13500 Galleria Cir, Ste U120",Bee Cave,TX,78738,30.309195,-97.9389124,3.5,0,0,0,0,0,0,0,0,0,0,0,0,0,0,0,0,1,10,113,11.3,68,38,7,6.8,3.8,0.7,28,24,11,0,2,1,1,0,0,0,0,0,0,0,1,0,0,0,1,0,1,1,2,1,1,1,1,0
280,cM-qEu8khiRs_qzfGQsUPQ,Bufalina,Bufalina,"1519 E Cesar Chavez, Ste 200",Austin,TX,78702,30.2584294,-97.72879,4,0,0,1,0,0,0,0,0,0,0,0,0,0,0,0,0,0,7,262,37.43,211,25,26,30.14,3.57,3.71,70,33,18,0,2,1,1,0,1,0,0,0,0,0,1,0,0,1,0,0,1,1,2,1,1,1,1,0
281,lnxDPi7QcCqp733mTOJcZA,Bufalina Due,Bufalina,6555 Burnet Rd,Austin,TX,78757,30.34135607,-97.73850519,4,0,0,1,0,0,0,0,0,0,0,0,0,0,0,0,0,0,4,107,26.75,71,18,18,17.75,4.5,4.5,41,18,13,1,2,1,1,0,0,0,0,0,1,0,0,0,0,1,0,0,1,1,2,1,1,1,1,0
282,ix_cr-CAOvPnsB84cqA36g,Buffalo Wild Wings,Buffalo Wild Wings,"901 Little Texas Ln, Bldg D",Austin,TX,78745,30.19690242,-97.767661,2.5,1,0,0,0,0,0,0,0,0,0,0,0,0,0,0,0,0,10,91,9.1,19,63,9,1.9,6.3,0.9,8,9,8,1,2,1,1,0,0,0,0,0,0,0,0,1,0,0,1,0,1,1,2,1,1,1,1,0
283,BLSGzrOeuPKhRlYUX1zrNg,Buffalo Wild Wings,Buffalo Wild Wings,13000 North Ih 35,Austin,TX,78753,30.411196,-97.675088,2,1,0,0,0,0,0,0,0,0,0,0,0,0,0,0,0,0,10,96,9.6,11,75,10,1.1,7.5,1,12,12,16,1,2,1,1,0,0,0,0,0,0,0,0,1,0,0,1,0,1,1,2,1,1,1,1,0
284,_gnGukBmraUu9rNM9fM-bg,Buffalo Wild Wings,Buffalo Wild Wings,7604 I-35 Noth,Austin,TX,78752,30.3382458,-97.7020019,2,1,0,0,0,0,0,0,0,0,0,0,0,0,0,0,0,0,11,107,9.73,22,76,9,2,6.91,0.82,8,11,19,1,2,1,1,0,0,0,0,0,0,0,0,1,0,0,1,0,1,1,2,1,1,1,1,0
285,rcLfBZO2ZjaJriGWmhWJJQ,Buffet King,,5451 N Ih 35,Austin,TX,78723,30.31517356,-97.70502234,2.5,0,0,0,0,1,0,0,0,0,0,0,0,0,0,0,0,0,9,85,9.44,20,49,16,2.22,5.44,1.78,18,1,6,0,2,0,0,0,0,0,0,0,0,0,0,1,1,0,0,0,1,1,2,1,1,0,1,0
286,HJisBzwgGpCZu0ZkO8LFzA,Buffet Palace,,4608 West Gate Blvd,Austin,TX,78745,30.2302574,-97.8013229,3.5,0,0,0,0,1,0,0,0,0,0,0,1,0,0,0,0,0,14,222,15.86,140,49,33,10,3.5,2.36,53,34,19,1,2,0,0,0,0,0,0,0,0,0,1,1,0,1,0,0,1,1,2,1,1,0,1,0
287,Q4NsTIZH90Dw2dwIJ99LEQ,Bull McCabe's,,714 Red River St,Austin,TX,78701,30.2681498,-97.7368065,4,0,0,0,0,0,0,0,0,0,0,0,0,0,0,0,0,1,12,11,0.92,9,1,1,0.75,0.08,0.08,0,1,0,0,1,1,1,0,0,0,0,0,0,0,0,0,0,0,1,0,0,1,1,1,1,0,0,2
288,hvcfftfx-uyoklSjEFt5Cw,Bullfight,,4807 Airport Blvd,Austin,TX,78751,30.30874883,-97.71540536,3.5,0,0,0,0,0,0,0,0,0,0,0,0,0,0,1,0,0,4,167,41.75,95,34,38,23.75,8.5,9.5,86,22,14,0,3,1,1,0,0,0,0,0,1,0,0,0,0,0,1,0,0,1,1,1,1,0,0,2
289,XH2y4duYEvKsDqIq8-WDlw,Bun Belly,,5001 Airport Blvd,Austin,TX,78751,30.3111736,-97.7150455,4,0,0,0,0,0,0,0,0,1,0,0,0,0,0,0,0,0,5,339,67.8,227,46,66,45.4,9.2,13.2,79,59,29,0,2,0,0,0,0,0,0,0,1,0,1,1,0,1,0,0,0,1,1,1,1,0,1,0
290,VatkONzpxuOn9x46ThfqnA,Bundrick's Traveling Tea Parlour,,2614 E Cesar Chavez St,Austin,TX,78702,30.2536973,-97.7141992,5,0,0,0,0,0,0,0,0,0,0,0,0,0,0,0,0,1,3,24,8,24,0,0,8,0,0,0,3,0,0,2,1,1,0,0,0,0,0,0,0,0,0,1,0,0,0,1,1,2,1,1,0,0,2
291,2wmiZMLerY9J-uJJzNsjQQ,Burger Bar On Congress,,110 E 2nd St,Austin,TX,78701,30.26468713,-97.74372371,3.5,1,0,0,0,0,0,0,0,0,0,0,0,0,0,0,0,0,5,124,24.8,74,23,27,14.8,4.6,5.4,22,8,5,1,1,1,1,0,0,0,0,0,0,0,0,1,1,0,0,0,1,1,2,1,1,0,1,0
292,pZpCpEX8XfcFTM9GjyLjtA,Burger King,Burger King,700 E William Cannon Dr,Austin,TX,78745,30.19176359,-97.77262715,2,0,0,0,0,0,0,0,0,0,0,0,0,0,0,0,0,1,9,14,1.56,2,12,0,0.22,1.33,0,0,0,1,0,1,0,0,0,0,0,0,0,0,0,0,0,1,0,0,0,0,0,0,0,1,1,1,0
293,IFLmuNjeRBEv9lMbvHo_zg,Burger King,Burger King,5015 Fm 2001,Buda,TX,78610,30.08009284,-97.8224077,2.5,0,0,0,0,0,0,0,0,0,0,0,0,0,0,0,0,1,7,11,1.57,4,7,0,0.57,1,0,0,1,0,0,1,0,0,0,0,0,0,0,0,0,0,0,1,0,0,0,0,0,0,0,1,1,0,3
294,idyjBAJmO8e4Xa80T6B9qg,Burger King,Burger King,3906 Braker Lane,Austin,TX,78759,30.3970961,-97.7342228,2,0,0,0,0,0,0,0,0,0,0,0,0,0,0,0,0,1,11,26,2.36,2,24,0,0.18,2.18,0,0,0,5,1,1,0,0,0,0,0,0,0,0,0,0,0,1,0,0,1,1,1,3,1,1,1,1,0
295,6vCl7TfkuwokzsCt0S7pOQ,Burger King,Burger King,7105 N Interstate 35 Apt 35,Austin,TX,78752,30.3320885,-97.7035501,3,0,0,0,0,0,0,0,0,0,0,0,0,0,0,0,0,1,8,11,1.38,6,5,0,0.75,0.62,0,0,0,1,1,1,0,0,0,0,0,0,0,0,0,0,0,1,0,0,1,1,1,3,1,1,1,1,0
296,3TSIx4vInAB3FPPwLOfKlw,Burger King,Burger King,13542 W Hwy 290,Austin,TX,78737,30.19759722,-98.00050314,2,0,0,0,0,0,0,0,0,0,0,0,0,0,0,0,0,1,8,11,1.38,3,7,1,0.38,0.88,0.12,0,2,2,0,1,0,0,0,0,0,0,0,0,0,0,0,1,0,0,1,1,1,3,1,0,1,0,3
297,zfUb8HHUrm9QkLXbRXP-NA,Burger King,Burger King,13450 S Hwy 183 North,Austin,TX,78750,30.447818,-97.791098,2,0,0,0,0,0,0,0,0,0,0,0,0,0,0,0,0,1,8,23,2.88,3,20,0,0.38,2.5,0,0,1,1,0,1,1,1,0,0,0,0,0,0,0,0,1,1,0,0,1,1,1,3,1,1,1,1,0
298,IDoTGpgzT9nv9M7IkeIypg,Burger King,Burger King,3427 Jefferson Ave,Austin,TX,78703,30.3071811,-97.7516891,2,0,0,0,0,0,0,0,0,0,0,0,0,0,0,0,0,1,10,10,1,2,7,1,0.2,0.7,0.1,1,0,1,0,1,0,0,0,0,0,0,0,0,0,0,0,1,0,0,0,0,0,0,0,1,1,1,0
299,bE_H_R7j5-staj2u2xRwHw,Burger King,Burger King,1905 Slaughter,Austin,TX,78748,30.1733329,-97.8227309,2,0,0,0,0,0,0,0,0,0,0,0,0,0,0,0,0,1,12,28,2.33,3,24,1,0.25,2,0.08,0,1,1,1,1,0,0,0,0,0,0,0,0,0,0,0,1,0,0,1,1,1,3,1,1,1,1,0
300,MprPD9c8qoqokANTOiU2Vg,Burger King,Burger King,1001 East Ben White Blvd,Austin,TX,78704,30.2167784,-97.7548485,1.5,0,0,0,0,0,0,0,0,0,0,0,0,0,0,0,0,1,10,24,2.4,2,22,0,0.2,2.2,0,1,1,1,1,1,0,0,0,0,0,0,0,0,0,0,0,1,0,0,1,1,1,3,1,1,1,1,0
301,j_0ixi8crzjq7FH-N5Ny2Q,Burger King,Burger King,5033 W Hwy 290,Austin,TX,78735,30.23366967,-97.8416158,2,0,0,0,0,0,0,0,0,0,0,0,0,0,0,0,0,1,8,10,1.25,0,10,0,0,1.25,0,0,0,2,0,1,0,0,0,0,0,0,0,0,0,0,0,1,0,0,1,1,1,3,1,0,1,0,1
302,d1ylkcZTfmUIZeMHzyYeEw,Burger King,Burger King,2500 E Riverside Dr,Austin,TX,78741,30.2353659,-97.7235728,1.5,0,0,0,0,0,0,0,0,0,0,0,0,0,0,0,0,1,8,18,2.25,2,16,0,0.25,2,0,1,0,0,1,1,0,0,0,0,0,0,0,0,0,0,0,1,0,0,1,1,1,3,1,1,1,1,0
303,LuEYESJvpHi9ImTjVhM6Mw,Burger King,Burger King,18600 IH-35 Frontage Rd,Buda,TX,78610,30.036712,-97.846298,1.5,0,0,0,0,0,0,0,0,0,0,0,0,0,0,0,0,1,11,53,4.82,5,47,1,0.45,4.27,0.09,1,0,2,1,1,0,0,0,0,0,0,0,0,0,0,0,1,0,0,1,1,1,3,1,0,1,1,0
304,59x3dsEa0qD7GfOtuLWKcw,Burger King,Burger King,9523 North Lamar Blvd,Austin,TX,78753,30.3652033,-97.6953644,2,0,0,0,0,0,0,0,0,0,0,0,0,0,0,0,0,1,10,11,1.1,2,9,0,0.2,0.9,0,1,0,1,1,1,1,1,0,0,0,0,0,0,0,0,0,1,0,0,1,1,1,3,1,1,1,1,0
305,LnfLSnmu5Yl9E9KxiQexcQ,Burger Tex,Burger Tex,5420 Airport Blvd,Austin,TX,78751,30.3167782,-97.7141546,3,1,0,0,0,0,0,0,0,0,0,0,0,0,0,0,0,0,13,76,5.85,40,31,5,3.08,2.38,0.38,12,7,4,0,1,0,0,0,0,0,0,0,0,0,0,1,0,1,0,1,1,1,3,1,1,1,1,0
306,dw3ukrM4VTRfgJEkCB-cIA,Burger Tex 2,Burger Tex,2912 Guadalupe St,Austin,TX,78705,30.295839,-97.742515,4,1,0,0,0,0,0,0,0,0,0,0,1,0,0,0,0,0,11,27,2.45,21,4,2,1.91,0.36,0.18,5,3,2,0,1,0,0,0,0,0,0,0,0,0,0,1,1,0,0,0,1,1,2,1,1,1,0,1
307,tZXG4QXiBreLYODATe_MKQ,BurgerFi,,"5701 Slaughter Ln, Ste B-150",Austin,TX,78749,30.20060869,-97.86899306,3.5,1,0,0,0,0,0,0,0,0,0,0,0,0,0,0,0,0,7,189,27,123,44,22,17.57,6.29,3.14,26,26,20,0,2,1,1,0,0,0,0,0,0,0,1,1,0,1,0,0,1,1,2,1,1,0,1,0
308,Uqmh8IEQweTDwtHKYlkR7g,Burma Bliss,,343 S Congress Ave,Austin,TX,78704,30.257132,-97.746437,4.5,0,0,0,0,0,1,0,0,0,0,0,0,0,0,0,0,0,2,19,9.5,18,1,0,9,0.5,0,2,2,0,1,1,1,1,0,0,0,0,0,0,0,0,0,1,0,0,0,1,1,2,1,1,0,0,1
309,wQrWpw_H1xiqV_qPlrkrEA,Burn Pizza + Bar,,1802 E 6th St,Austin,TX,78702,30.2622365,-97.7231358,4,0,0,1,0,0,0,0,0,0,0,0,0,0,0,0,0,0,2,71,35.5,46,13,12,23,6.5,6,27,11,3,0,2,1,1,0,0,0,0,0,1,0,0,1,0,0,1,0,0,1,1,1,1,0,0,1
310,CfXB2vQ0_wLzwhVUpkj-XA,Burrito Factory,,"2025 Guadalupe St, Ste 244",Austin,TX,78705,30.2833507,-97.7415642,4.5,1,1,0,0,0,0,0,0,0,0,0,0,0,0,0,0,0,14,61,4.36,58,2,1,4.14,0.14,0.07,8,6,2,1,1,0,0,0,0,0,0,0,0,0,0,1,1,0,0,0,1,1,2,1,1,0,1,0
311,9MbWzPRvxANIbpV5PgggNQ,Burro Cheese Kitchen,,1221 S Congress Ave,Austin,TX,78704,30.251704,-97.748737,4,0,0,0,0,0,0,0,0,0,0,0,0,0,0,0,0,1,7,124,17.71,85,27,12,12.14,3.86,1.71,11,8,9,1,1,1,1,0,0,0,0,0,0,0,0,1,1,0,0,0,0,0,0,0,1,0,1,0
312,zr40jIjFDIcZ3dzbSK53Ww,Bush's Chicken,,9815 Brodie Ln,Austin,TX,78748,30.1857959,-97.8477408,3.5,0,0,0,0,0,0,0,0,0,0,0,0,0,0,0,0,1,9,48,5.33,26,13,9,2.89,1.44,1,9,4,4,1,1,0,0,0,0,0,0,0,0,0,0,1,1,0,0,1,1,1,3,1,1,0,1,0
313,VV0Vx8HUXdZwuQ7dLBnyag,Cabo Bob's Burritos,Cabo Bob's Burritos,"500 E Ben White Blvd, Ste D100",Austin,TX,78704,30.22098092,-97.75692844,4.5,0,1,0,0,0,0,0,0,0,0,0,0,0,0,0,0,0,12,270,22.5,231,22,17,19.25,1.83,1.42,36,32,12,1,1,1,1,0,0,0,0,0,0,0,1,1,1,0,0,0,0,1,1,1,1,1,1,0
314,-Ce8p148xb0-4dv_3zwm3A,Cabo Bob's Burritos,Cabo Bob's Burritos,2828 Rio Grande St,Austin,TX,78705,30.295789,-97.7442669,4.5,0,1,0,0,0,0,0,0,0,0,0,0,0,0,0,0,0,7,255,36.43,232,11,12,33.14,1.57,1.71,29,33,1,1,1,1,1,0,0,0,0,0,0,0,0,1,1,0,0,0,0,1,1,1,1,1,1,0
315,vWRgg4104wXuzIRkev9jiw,Cactus Cafe,,2247 Guadalupe St,Austin,TX,78712,30.286153,-97.741258,4.5,1,0,0,0,0,0,0,0,0,0,0,0,0,0,0,0,0,13,5,0.38,5,0,0,0.38,0,0,0,1,1,0,2,0,0,0,0,0,0,1,0,0,0,1,0,0,1,0,1,1,2,1,1,0,0,2
316,g6Z8jugUqTHV_qc-_zEjDQ,Café Crème,,1834 E Oltorf St,Austin,TX,78741,30.2318495,-97.7356255,4.5,0,0,0,0,0,0,0,0,0,0,0,0,0,0,0,0,1,6,213,35.5,175,23,15,29.17,3.83,2.5,32,33,5,1,1,1,1,0,0,0,0,0,0,0,0,1,0,1,0,1,1,0,2,1,1,0,1,0
317,HvWTntcf7Hz_BEW5zBN4-g,Café Crêpe,,"200 San Jacinto Blvd, Ste A",Austin,TX,78701,30.26385867,-97.74185481,4,0,0,0,0,0,0,0,1,0,0,0,0,0,0,0,0,0,11,370,33.64,240,73,57,21.82,6.64,5.18,58,51,24,0,2,1,1,0,0,0,0,0,0,0,1,1,0,1,0,1,1,0,2,1,1,0,1,0
318,YbOE1PfKQA5ATnq7Ly6FUQ,Café Lago,,"1200 Lakeway Dr, Ste 1",Lakeway,TX,78734,30.3637244,-97.9819361,4,0,0,0,0,0,0,0,0,0,0,0,0,0,0,0,0,1,13,116,8.92,87,22,7,6.69,1.69,0.54,26,23,4,0,1,1,1,0,0,0,0,0,0,0,0,1,1,0,0,1,1,0,2,1,0,0,1,0
319,8R3zQV49GCreVwWlXjJntA,Café Mueller by H-E-B,,1801 E 51st St,Austin,TX,78723,30.30120195,-97.69851351,3.5,1,0,0,0,0,0,0,0,0,0,0,0,0,0,0,0,0,7,120,17.14,58,39,23,8.29,5.57,3.29,32,13,8,1,1,1,1,0,0,0,0,0,0,0,0,1,0,1,0,0,1,1,2,1,1,0,1,0
320,yH33eQMUlxsM2GDHA7Gmmg,Café No Sé,,1603 S Congress Ave,Austin,TX,78704,30.2473651,-97.7501159,4,0,0,0,0,0,0,0,0,0,0,0,0,0,0,0,0,1,5,393,78.6,271,67,55,54.2,13.4,11,88,71,32,1,2,1,1,0,0,0,0,0,1,0,1,0,0,0,1,1,1,1,3,1,1,0,1,0
321,onyh8vJ4sapoPXAKGZi1Pw,Cafe 1626,,"11600 Manchaca Rd, Ste A",Austin,TX,78748,30.151154,-97.833317,3,1,0,0,0,0,0,0,0,0,0,0,0,0,0,0,0,0,12,39,3.25,13,23,3,1.08,1.92,0.25,1,1,5,1,1,0,0,0,0,0,0,0,0,0,0,1,0,1,0,0,1,1,2,1,1,0,0,2
322,FsSbzJi_AQKrrUq2kpjLwQ,Cafe 290,,11011 Hwy 290 E,Manor,TX,78653,30.348327,-97.558417,3.5,1,0,0,0,0,0,0,0,0,0,0,0,0,0,0,0,0,14,114,8.14,60,40,14,4.29,2.86,1,18,15,14,0,2,0,0,0,0,0,0,0,0,0,0,1,1,0,0,1,1,0,2,1,1,0,1,0
323,#NAME?,Cafe 605,,605 Davis St,Austin,TX,78701,30.259994,-97.739159,4,0,0,0,0,0,0,0,0,0,0,0,0,0,0,0,0,1,5,16,3.2,10,3,3,2,0.6,0.6,0,2,0,0,1,0,0,0,0,0,0,0,0,0,1,0,0,1,0,1,1,1,3,1,1,0,1,0
324,GYRsTbwNyqWjbJT11a7PHg,Cafe Bistro,,2901 Capital Of Texas Hwy S,Austin,TX,78746,30.25877992,-97.80843616,4,1,0,1,0,0,1,0,0,0,0,0,0,0,0,0,0,0,13,22,1.69,15,3,4,1.15,0.23,0.31,2,2,1,0,2,0,0,0,0,0,0,0,1,0,0,0,0,1,0,0,1,1,2,1,1,0,1,0
325,Paosk4oumMSEhhDTKzKcfg,Cafe Blue,Cafe Blue,"12800 Hill Country Blvd, Ste G-115",Bee Cave,TX,78738,30.3093819,-97.94017428,3.5,0,0,0,0,0,0,0,0,0,0,0,0,0,0,0,0,1,9,187,20.78,112,46,29,12.44,5.11,3.22,50,33,12,0,2,1,1,0,0,0,0,0,0,0,1,0,0,0,1,0,1,1,2,1,1,1,1,0
326,wvU_-fiTIwW4GTEj_4I5Hg,Cafe Blue - Downtown,Cafe Blue,340 E 2nd St,Austin,TX,78701,30.2637689,-97.7408639,3.5,0,0,0,0,0,0,0,0,0,0,0,0,0,0,0,0,1,4,220,55,142,49,29,35.5,12.25,7.25,59,40,24,1,2,1,1,0,0,0,0,0,0,1,1,1,0,0,1,0,1,1,2,1,1,1,1,0
327,s4i6ymc-afjoMYn48K_uUA,Cafe Divine,,"301 E 8th St, Fl 3, St. David's Episcopal Church",Austin,TX,78701,30.26696767,-97.74301788,4.5,1,0,0,0,0,0,0,0,0,0,0,0,0,0,0,0,0,9,4,0.44,4,0,0,0.44,0,0,0,0,0,1,1,0,0,0,0,0,0,0,0,0,0,0,1,0,0,0,0,1,1,1,1,0,1,0
328,Wys-I8pKoWRf_v50ICieXA,Cafe Express,,3418 N Lamar Blvd,Austin,TX,78705,30.3033092,-97.7446834,3,1,0,0,0,0,0,0,0,0,0,0,0,0,0,0,0,0,9,49,5.44,18,23,8,2,2.56,0.89,7,0,2,1,2,1,1,0,0,0,0,0,0,0,0,1,0,1,0,0,0,1,1,1,1,0,0,2
329,0f5DHqE-_wpiW5RjMObOKQ,Cafe Fresh,,"2700 Barton Creek Blvd, Ste 150-160",Austin,TX,78735,30.2894855,-97.8714118,4,0,0,0,0,0,0,0,0,0,0,0,0,0,0,0,0,1,8,3,0.38,2,0,1,0.25,0,0.12,0,0,0,1,2,1,1,0,0,0,0,0,0,0,0,0,1,0,0,0,0,0,0,0,0,0,0,1
330,BxNVjAbT0k3BEXH9G8-diw,Cafe Hornitos,,3704 N I-35,Austin,TX,78705,30.29415976,-97.72050027,4,0,1,0,0,0,0,0,0,0,0,0,0,0,0,0,0,0,13,35,2.69,30,2,3,2.31,0.15,0.23,8,6,0,1,1,0,0,0,0,0,0,0,0,0,0,1,0,0,1,1,1,1,3,1,1,0,1,0
331,JmL6gV8o-hDzjRLG2TqM4g,Cafe Java- Austin,,"11900 Metric Blvd, Ste K",Austin,TX,78758,30.40006093,-97.70416173,4.5,1,0,0,0,0,0,0,0,0,0,0,0,0,0,0,0,0,14,507,36.21,458,16,33,32.71,1.14,2.36,138,115,18,0,1,0,0,0,0,0,0,0,0,0,1,1,1,0,0,1,1,1,3,1,0,0,1,0
332,SCwzUgW_RUdahXNObknkTg,Cafe Josie,,"1200 W 6th St, Ste B",Austin,TX,78703,30.27312129,-97.7571356,4.5,1,0,0,0,0,0,0,0,0,0,0,0,0,0,1,1,0,14,164,11.71,145,12,7,10.36,0.86,0.5,40,24,12,0,3,1,1,0,0,0,0,1,0,0,1,0,0,0,1,0,0,1,1,1,1,0,1,0
333,WO6TXr7ExpOLs2fTmDQedA,Cafe Malta,,3421 W William Cannon Dr,Austin,TX,78745,30.21264073,-97.83047874,4,0,0,0,0,0,0,1,1,0,0,0,0,0,0,0,0,0,9,206,22.89,148,40,18,16.44,4.44,2,74,34,14,1,2,1,1,0,0,0,0,0,0,0,1,1,0,0,1,0,0,1,1,1,1,0,1,0
334,wOW88OkFo1T7PASCsjr6KA,Cafe Ruckus,,409 W 2nd St,Austin,TX,78701,30.2653443,-97.7481776,4.5,0,0,0,0,0,0,0,0,0,0,0,0,0,0,0,0,1,4,21,5.25,18,2,1,4.5,0.5,0.25,1,5,2,0,1,1,1,0,0,0,0,0,0,0,0,1,1,0,0,1,1,1,3,1,1,0,0,1
335,LLPz6iVGfo5DFJncWXWDQA,Cafe Ybor Food Bus,,12701 Nutty Brown Rd,Austin,TX,78737,30.1994915,-97.9718798,4.5,1,0,0,0,0,0,0,0,0,0,0,0,0,0,0,0,0,6,31,5.17,29,2,0,4.83,0.33,0,2,2,0,0,2,0,0,0,0,0,0,0,0,0,0,0,1,0,0,0,0,0,0,0,0,0,1,0
336,N_sZ_nR1eI2hBnILDjDYGQ,Caffé Medici,,"200 Congress Ave, Ste 2B",Austin,TX,78701,30.2646273,-97.74419189,4,0,0,0,0,0,0,0,0,0,0,0,0,0,0,0,0,1,9,121,13.44,99,11,11,11,1.22,1.22,8,21,3,1,1,1,1,0,0,0,0,0,0,0,0,0,1,0,0,1,1,1,3,1,1,0,1,0
337,mXuOaCeG7ZN27JBAvK4j8w,Caffe Aragona,,914 Congress Ave,Austin,TX,78701,30.2715203,-97.7419461,4.5,0,0,1,0,0,0,0,0,0,0,0,0,0,0,0,0,0,4,21,5.25,19,2,0,4.75,0.5,0,2,4,1,0,1,1,1,0,0,0,0,0,0,0,0,1,1,0,0,1,0,0,1,1,1,0,1,0
338,mO9pdG7ssRhObnb56MyZ_A,Caffe Medici,,1101 W Lynn St,Austin,TX,78703,30.2795138,-97.759411,4,0,0,0,0,0,0,0,0,0,0,0,0,0,0,0,0,1,13,53,4.08,41,7,5,3.15,0.54,0.38,0,7,1,1,1,1,1,0,0,0,0,0,0,0,0,0,1,0,0,1,1,1,3,1,1,0,1,0
339,QF9-_EoCi2bVCBjLhd4gtg,Caffe Teo - Gelato and Espresso,,"1206 W 38th St, Ste 1204B",Austin,TX,78705,30.306588,-97.745231,4,0,0,0,0,0,0,0,0,0,0,0,0,0,0,0,0,1,14,99,7.07,79,13,7,5.64,0.93,0.5,7,11,1,0,1,1,1,0,0,0,0,0,0,0,0,0,1,0,0,1,1,1,3,1,1,0,1,0
340,e9KCQvafAkKzg5-rb7Sihg,Cain and Abel's,,2313 Rio Grande St,Austin,TX,78705,30.2876707,-97.744488,3,1,0,0,0,0,0,0,0,0,0,0,0,0,0,0,0,0,14,41,2.93,20,18,3,1.43,1.29,0.21,1,4,3,1,1,1,1,0,0,0,0,0,0,0,0,1,0,0,1,0,1,0,1,1,1,0,1,0
341,G0hu-rddoWtVIQadEHdG-A,Cajun Pizza Place,,"6001 W Parmer Ln, Ste 440",Austin,TX,78727,30.44147151,-97.74556258,4,0,0,0,0,0,0,0,0,0,0,0,0,0,0,0,0,1,5,100,20,69,20,11,13.8,4,2.2,21,14,6,1,2,1,1,0,0,0,0,0,0,0,0,1,0,1,0,0,1,1,2,1,1,0,0,3
342,tP08dk39lScqk6VPjOTXaQ,California Pizza Kitchen at Barton Creek Square,,"2901 S Capital Of Texas Hwy, Barton Creek, Sp J-01",Austin,TX,78746,30.258721,-97.807728,3,1,0,0,0,0,0,0,0,0,0,0,0,0,0,0,0,0,13,59,4.54,26,26,7,2,2,0.54,14,10,4,1,2,0,0,0,0,0,0,0,0,0,0,1,0,0,1,0,1,1,2,1,1,0,1,0
343,horYo4q7UDs71-Cv80VEMg,California Pizza Kitchen at The Domain,,"3401 Esperanza Crossing, Space E01",Austin,TX,78758,30.400384,-97.727077,3,1,0,1,0,0,0,0,0,0,0,0,0,0,0,0,0,0,13,99,7.62,37,52,10,2.85,4,0.77,14,8,9,1,2,1,1,0,0,0,0,0,0,0,0,1,0,0,1,0,1,1,2,1,1,0,1,0
344,LzZ1IkDC0T5BjNeO9V2srQ,Camino Real Restaurant,,8650 Spicewood Springs Rd,Austin,TX,78759,30.43256754,-97.77038235,4,0,1,0,0,0,0,0,0,0,0,0,0,0,0,0,0,0,13,73,5.62,45,16,12,3.46,1.23,0.92,21,19,3,0,1,0,0,0,0,0,0,0,0,0,0,1,0,0,1,1,1,0,2,1,1,0,1,0
345,R5lZv6sfLOHJESP2CccNqw,Cane Rosso,,"4715 S Lamar Blvd, Ste 103",Sunset Valley,TX,78745,30.232566,-97.811206,4,0,0,1,0,0,0,0,0,0,0,0,0,0,0,0,0,0,4,308,77,203,61,44,50.75,15.25,11,87,58,21,1,2,1,1,0,0,0,0,0,1,0,1,1,0,0,1,0,1,1,2,1,1,0,1,0
346,mfVvXIwAkUf9rYt2epWEeQ,Cannon + Belle,,500 E 4th St,Austin,TX,78701,30.265181,-97.738255,3.5,1,0,0,0,0,0,0,0,0,0,0,0,0,0,0,0,0,4,155,38.75,98,34,23,24.5,8.5,5.75,27,27,15,0,2,0,0,0,0,0,0,0,1,0,1,1,0,0,1,0,0,1,1,1,1,0,1,0
347,8GusTJDbsUChxDYP677npg,Cannone Cucina Italiana,,1720 Barton Springs Rd,Austin,TX,78704,30.2634726,-97.7628712,4.5,0,0,1,0,0,0,0,0,0,0,0,0,0,0,0,0,0,4,115,28.75,100,8,7,25,2,1.75,12,5,5,1,2,1,1,0,0,0,0,0,0,0,1,1,1,0,0,0,0,1,1,1,1,0,1,0
348,8fRuh5u49y-M4Pd11fJsVw,Cantina Laredo,,201 W 3rd St,Austin,TX,78701,30.2655168,-97.7455009,3,0,1,0,0,0,0,0,0,0,0,0,0,0,0,0,0,0,12,21,1.75,8,12,1,0.67,1,0.08,4,1,2,1,2,1,1,0,0,0,0,0,0,1,0,0,0,0,1,0,1,1,2,1,1,0,0,1
349,QLk2awI_IPmMyEoIM92VLQ,Cantine Italian Cafe & Bar,,"1100 S Lamar Blvd, Ste 2115",Austin,TX,78704,30.25578486,-97.76181031,4,0,0,1,0,0,0,0,0,0,0,0,0,0,0,0,0,0,3,61,20.33,42,7,12,14,2.33,4,28,8,5,1,2,1,1,0,0,0,0,0,1,0,0,0,0,0,1,0,1,1,2,1,1,0,0,1
350,I1y3BOxQLqIFZYoOnrisSA,Capital City Bakery,,2211 E Cesar Chavez,Austin,TX,78702,30.25523988,-97.71990981,4.5,0,0,0,0,0,0,0,0,0,0,0,0,0,0,0,0,1,8,269,33.62,225,24,20,28.12,3,2.5,10,23,2,1,1,1,1,0,0,0,0,0,0,0,0,1,1,0,0,1,1,0,2,1,1,0,1,0
351,J3L6Vo-Pe0PGyTxhuT8bSw,Capital Taco,,2125 W Ben White Blvd,Austin,TX,78704,30.23087472,-97.7918845,4.5,0,1,0,0,0,0,0,0,0,0,0,0,0,0,0,0,0,6,66,11,56,9,1,9.33,1.5,0.17,6,4,1,1,1,1,1,0,0,0,1,0,0,0,0,1,1,0,0,1,1,1,3,1,1,0,1,0
352,MdEVBlf_8U8WntGXR2L7IA,Capitol Grill,,1400 N Congress Ave,Austin,TX,78701,30.27684,-97.740384,3.5,1,0,0,0,0,0,0,0,0,0,0,0,0,0,0,0,0,14,13,0.93,5,3,5,0.36,0.21,0.36,6,0,3,0,1,0,0,0,0,0,0,0,0,0,0,1,1,0,0,1,1,1,3,1,1,0,1,0
353,ZHyTpw7mhZta95y6MlUP2Q,Captain Benny's Seafood,,5700 N I H 35,Austin,TX,78751,30.317645,-97.70793,3,0,0,0,0,0,0,0,0,0,0,0,0,0,0,0,0,1,13,84,6.46,38,35,11,2.92,2.69,0.85,21,12,8,1,2,1,1,0,0,0,0,0,0,0,0,1,0,1,0,0,1,1,2,1,1,0,1,0
354,Brs77VeI66A31qstE9ogzQ,Carl's Jr,Carl's Jr,609 W Slaughter Ln,Austin,TX,78748,30.1726799,-97.8006143,2.5,0,0,0,0,0,0,0,0,0,0,0,0,0,0,0,0,1,10,18,1.8,6,9,3,0.6,0.9,0.3,2,1,0,0,1,0,0,0,0,0,0,0,0,0,0,1,1,0,0,1,1,1,3,1,1,1,0,2
355,6pQlIRdNAnCQez-kkdufzw,Carl's Jr,Carl's Jr,20417 Interstate 35,Kyle,TX,78640,30.01401402,-97.85890282,2,0,0,0,0,0,0,0,0,0,0,0,0,0,0,0,0,1,3,11,3.67,1,9,1,0.33,3,0.33,0,0,1,0,1,0,0,0,0,0,0,0,0,0,0,0,1,0,0,1,1,1,3,1,1,1,0,1
356,veyWHcNGBJJoEtAUX3gZqw,Carmela's Pizzeria Cafe & Deli,,18901 Hamilton Pool Rd,Dripping Springs,TX,78620,30.286299,-98.065938,4,0,0,0,0,0,0,0,0,0,0,0,0,0,0,0,0,1,9,37,4.11,17,16,4,1.89,1.78,0.44,14,6,8,0,2,1,1,0,0,0,0,0,0,0,0,1,0,1,0,0,1,1,2,1,0,0,1,0
357,VKwwIrLqpzQceCTeFgtCtw,Carmelo's Ristorante Italiano,,504 E 5th St,Austin,TX,78701,30.2659134,-97.7381162,3.5,0,0,1,0,0,0,0,0,0,0,0,0,0,0,0,0,0,11,48,4.36,37,4,7,3.36,0.36,0.64,13,16,2,0,3,1,1,0,0,1,0,0,0,0,0,0,0,0,1,0,0,1,1,1,1,0,0,1
358,UcLMrKIzu8VcWbYcXO9EcQ,Carrabba's Italian Grill,,11590 Research Blvd,Austin,TX,78759,30.4147898,-97.7470601,3.5,0,0,1,0,0,0,0,0,0,0,0,0,0,0,0,0,0,14,93,6.64,54,34,5,3.86,2.43,0.36,33,24,8,1,2,1,1,0,0,0,0,0,0,0,0,1,0,0,1,0,1,1,2,1,1,0,1,0
359,POQzIIE9sZdpjAhzUsVtrA,Carving Board Deli,,6448 E Hwy 290,Austin,TX,78723,30.3230256,-97.6950529,3,0,0,0,0,0,0,0,0,0,0,0,0,0,0,0,0,1,9,3,0.33,3,0,0,0.33,0,0,3,0,0,1,1,1,1,0,0,0,0,0,0,0,0,1,1,0,0,1,1,0,2,1,1,0,0,1
360,yTa3QHFVTxxVoyCFQw3fsg,Casa Arandinas,,"9001 Brodie Ln, Ste A3",Austin,TX,78748,30.193794,-97.842702,3.5,1,1,0,0,0,0,0,0,0,0,0,0,0,0,0,0,0,6,98,16.33,51,43,4,8.5,7.17,0.67,34,11,8,0,2,0,0,0,0,0,0,0,0,0,0,1,0,0,1,1,1,1,3,1,1,0,1,0
361,zM98ZSIJyuBQabyYornLpw,Casa Chapala Mexican Cuisine & Tequila Bar,,"9041 Research Blvd, Ste 100",Austin,TX,78758,30.3737166,-97.7255182,4,1,1,0,0,0,0,0,0,0,0,0,0,0,0,0,0,0,6,369,61.5,253,85,31,42.17,14.17,5.17,135,68,21,1,2,1,1,0,0,0,0,0,0,0,1,1,0,0,1,1,1,1,3,1,1,0,1,0
362,aJpPFyqmYweduHwuMPu_tw,Casa Colombia,,2409 E 7th St,Austin,TX,78702,30.2607678,-97.7147061,4,1,0,0,0,0,0,0,0,0,0,0,0,0,0,1,0,0,6,245,40.83,191,37,17,31.83,6.17,2.83,54,51,13,1,2,1,1,0,0,0,0,0,0,0,0,1,0,0,1,0,1,1,2,1,1,0,1,0
363,m2AzyGWRKkwYoe66dY1MzQ,Casa De Luz,,1701 Toomey Rd,Austin,TX,78704,30.2644016,-97.7615553,4.5,0,0,0,0,0,0,0,0,0,0,0,0,0,0,0,0,1,14,198,14.14,173,9,16,12.36,0.64,1.14,24,23,8,1,2,1,1,0,0,0,0,0,0,0,1,1,1,0,0,1,1,1,3,1,1,0,1,0
364,OUZIlIytYIiqPj2RFY2pRQ,Casa Garcia's,Casa Garcia's,5401 S FM 1626,Kyle,TX,78640,30.0169045,-97.8633635,3,0,1,0,0,0,0,0,0,0,0,0,0,0,0,0,0,0,9,166,18.44,77,65,24,8.56,7.22,2.67,43,31,17,0,2,1,1,0,0,0,0,0,0,0,0,1,0,0,1,1,1,1,3,1,1,1,1,0
365,m81MDdpyOWKhxUrgTP8H5g,Casa Garcia's,Casa Garcia's,1901 W William Cannon Dr,Austin,TX,78745,30.202119,-97.806249,3.5,0,1,0,0,0,0,0,0,0,0,0,0,0,0,0,0,0,13,200,15.38,140,41,19,10.77,3.15,1.46,67,52,16,0,2,0,0,0,0,0,0,0,0,0,0,1,0,0,1,1,1,1,3,1,1,1,1,0
366,CrSMWLz5D6zYXAD0faC0RA,Casa Jaliscienses,,8214 N Interstate Hwy 35,Austin,TX,78753,30.34523411,-97.69709288,2.5,0,1,0,0,0,0,0,0,0,0,0,0,0,0,0,0,0,8,4,0.5,0,4,0,0,0.5,0,0,0,0,0,2,0,0,0,0,0,0,0,0,0,0,0,0,0,1,0,0,0,0,0,1,0,0,2
367,i22RI14xYy2DpMy-spFd0Q,Casa Linda Taqueria,,623 W Dittmar Rd,Austin,TX,78745,30.18339745,-97.7920326,4.5,0,1,0,0,0,0,0,0,0,0,0,0,0,0,0,0,0,6,49,8.17,45,3,1,7.5,0.5,0.17,3,7,1,0,1,0,0,0,0,0,0,0,0,0,0,0,1,0,0,1,1,0,2,1,1,0,1,0
368,SnET6UQ6uDiKEdP15L4Zbw,Casa Maria,,"4327 S 1st St, Ste 102",Austin,TX,78745,30.22153,-97.772284,4,0,1,0,0,0,0,0,0,0,0,0,0,0,0,0,0,0,14,100,7.14,63,22,15,4.5,1.57,1.07,14,19,9,1,1,0,0,0,0,0,0,0,0,0,0,1,0,0,1,1,1,1,3,1,1,0,1,0
369,PYkrkSvt0hTD4a9_yclgcg,Casa Moreno's,,4606 Burleson Rd,Austin,TX,78744,30.213574,-97.731403,3.5,0,1,0,0,0,0,0,0,0,0,0,0,0,0,0,0,0,12,31,2.58,19,10,2,1.58,0.83,0.17,5,1,4,1,1,0,0,0,0,0,0,0,0,0,0,0,1,0,0,1,1,0,2,1,1,0,1,0
370,HfAedVTbfqe10tp0g36AiA,Casa Vallarta,,6002 Burleson Rd,Austin,TX,78744,30.20662898,-97.7182224,4,0,1,0,0,0,0,0,0,0,0,0,0,0,0,0,0,0,6,50,8.33,36,10,4,6,1.67,0.67,10,8,7,0,1,1,1,0,0,0,1,0,0,0,0,0,0,1,0,1,1,1,3,1,0,0,1,0
371,KjaK4CsJ_PypmVBncLwWAA,Casino El Camino,,517 E 6th St,Austin,TX,78701,30.2663969,-97.7377024,3.5,1,0,0,0,0,0,0,0,0,0,0,0,0,0,0,0,0,15,348,23.2,246,76,26,16.4,5.07,1.73,60,29,13,0,2,1,1,0,0,0,1,0,0,0,1,0,0,0,1,0,1,0,1,1,1,0,1,0
372,P4AT7PFqBXaKh5pw_syUXw,Casita Nicole Antojitos Mexicanos,,9618 Manchaca Rd,Austin,TX,78748,30.1759234,-97.823177,5,0,0,0,0,0,0,0,0,0,0,0,0,0,0,0,0,1,5,16,3.2,16,0,0,3.2,0,0,0,0,0,0,1,0,0,0,0,0,0,0,0,0,0,0,1,0,0,1,1,0,2,1,1,0,1,0
373,jLPo6928NKqQzve1VqRzOQ,Caspian Grill,,"12518 Research Blvd, Ste J",Austin,TX,78759,30.428804,-97.760393,4.5,0,0,0,0,0,0,1,0,0,0,0,0,0,0,0,1,0,5,251,50.2,218,25,8,43.6,5,1.6,46,36,3,1,2,0,0,0,0,0,0,0,0,0,0,1,0,1,0,0,1,1,2,1,1,0,1,0
374,WHhnb0ZsP5Rvh7liL6hioQ,Castro's Bar and Grill,,"900 Ranch Road 620 S, C104",Lakeway,TX,78734,30.355443,-97.961635,4.5,1,0,0,0,0,0,0,0,0,0,0,0,0,0,0,0,0,5,8,1.6,8,0,0,1.6,0,0,0,0,0,0,2,0,0,0,0,0,0,0,0,0,0,1,0,0,1,0,1,0,1,1,1,0,1,0
375,YAQ3heLM_OG6aJri1MZQNQ,Catering By Mopsie,,401 Congress Ave,Austin,TX,78701,30.2667475,-97.7430419,4,0,0,0,0,0,0,0,0,0,0,0,0,0,0,0,0,1,4,4,1,3,1,0,0.75,0.25,0,0,0,0,1,2,0,0,0,0,0,0,0,0,0,0,0,0,0,1,1,1,1,3,1,1,0,1,0
376,sT8KQ2Zm_r1G1C-KNzZF5A,Catfish Parlour,Catfish Parlour,4705 E Ben White Blvd,Austin,TX,78741,30.213936,-97.731294,3.5,1,0,0,0,0,0,0,0,0,0,0,0,0,0,0,0,0,13,111,8.54,70,29,12,5.38,2.23,0.92,31,27,12,1,2,0,0,0,0,0,0,0,0,0,0,1,0,0,1,0,1,1,2,1,1,1,1,0
377,yE3FMBaomO9Wjm4HxkK-Vg,Catfish Parlour - North Austin,Catfish Parlour,11910 Research Blvd,Austin,TX,78759,30.42425744,-97.74979273,4,1,0,0,0,0,0,0,0,0,0,0,0,0,0,0,0,0,13,135,10.38,110,11,14,8.46,0.85,1.08,28,28,10,1,2,0,0,0,0,0,0,0,0,0,0,1,0,1,0,0,1,1,2,1,1,1,1,0
378,Tp05R1bb1sgEK872ioHH8g,Cazamance,,5604 S Congress Ave,Austin,TX,78745,30.20433591,-97.77545955,4.5,0,0,0,0,0,0,0,0,0,0,0,0,0,1,0,0,0,8,37,4.62,36,1,0,4.5,0.12,0,5,1,0,1,1,1,1,0,0,0,0,0,0,0,0,1,1,0,0,1,1,1,3,1,1,0,0,1
379,rvM4hrCnaChlw97NRPbgLg,Cedar Door Patio Bar & Grill,,201 Brazos St,Austin,TX,78701,30.26407563,-97.74259017,3.5,1,0,0,0,0,0,0,0,0,0,0,0,0,0,0,0,0,14,195,13.93,126,34,35,9,2.43,2.5,68,35,16,0,2,1,1,0,0,0,0,0,0,0,1,1,0,0,1,0,1,1,2,1,1,0,1,0
380,_BbODcinangkwNvVwpvfuA,Cenote,,1010 E Cesar Chavez St,Austin,TX,78702,30.26055805,-97.73368124,4,1,0,0,0,0,0,0,0,0,0,0,0,0,0,0,0,0,8,380,47.5,300,37,43,37.5,4.62,5.38,84,44,13,1,1,0,0,0,1,0,0,0,0,0,0,1,0,1,0,1,1,1,3,1,1,0,1,0
381,VMIajoUuzTa7XeLWn-md9A,Central Donut,,"1910 W Braker Ln, Ste 700",Austin,TX,78758,30.39301104,-97.70679807,4.5,0,0,0,0,0,0,0,0,0,0,0,0,0,0,0,0,1,11,23,2.09,18,2,3,1.64,0.18,0.27,1,5,0,0,1,0,0,0,0,0,0,0,0,0,0,0,1,0,0,1,1,0,2,1,1,0,1,0
382,xdIY9G8f_PeXxaMcMTAYUw,Central Market - North Lamar,Central Market Cafe,4001 N Lamar Blvd,Austin,TX,78756,30.30761,-97.739877,4,1,0,0,0,0,0,0,0,0,0,0,0,0,0,0,0,0,15,150,10,110,24,16,7.33,1.6,1.07,8,13,7,1,2,0,0,0,0,0,0,0,0,0,0,0,0,1,0,1,1,1,3,1,1,1,1,0
383,94UbqQA00MSmjYruydK11Q,Central Market - Westgate,Central Market Cafe,4477 S Lamar Blvd,Austin,TX,78745,30.23124525,-97.79716657,4,1,0,0,0,0,0,0,0,0,0,0,0,0,0,0,0,0,14,128,9.14,93,30,5,6.64,2.14,0.36,11,14,4,1,2,1,1,0,1,0,0,0,0,0,0,1,0,1,0,1,1,1,3,1,1,1,1,0
384,Bsr09dSs3DMzL-ejpNbZUw,Central Market Cafe,Central Market Cafe,4477 S Lamar Blvd,Austin,TX,78745,30.23097179,-97.79749112,3,1,0,0,0,0,0,0,0,0,0,0,0,0,0,0,0,0,14,51,3.64,19,21,11,1.36,1.5,0.79,6,3,6,0,2,1,1,0,0,0,0,0,0,0,0,1,0,1,0,1,1,1,3,1,1,1,1,0
385,wEjTBa2bJDG5CRiJ5Qdrmw,Central Market Cafe,Central Market Cafe,4001 N Lamar Blvd,Austin,TX,78756,30.30703571,-97.73997217,4,1,0,0,0,0,0,0,0,0,0,0,0,0,0,0,0,0,13,34,2.62,25,7,2,1.92,0.54,0.15,6,1,1,0,2,1,1,0,0,0,0,0,0,0,0,1,0,1,0,1,1,1,3,1,1,1,1,0
386,sfKSbcVMdQDF-KsNSkXsfg,Central Standard,,1603 S Congress Ave,Austin,TX,78704,30.24772463,-97.7501159,3.5,1,0,0,0,0,0,0,0,0,0,0,0,0,0,0,0,0,5,165,33,78,52,35,15.6,10.4,7,68,25,15,0,3,1,1,0,0,0,0,0,1,0,1,0,0,0,1,0,1,1,2,1,1,0,1,0
387,Y6YnSQxDVcmmypv2vdQIrQ,Central Texas Spine Institute,,"6818 Austin Center Blvd, Ste 200",Austin,TX,78731,30.3505634,-97.751883,3.5,0,0,0,0,0,0,0,0,0,0,0,0,0,0,0,0,1,11,27,2.45,16,11,0,1.45,1,0,0,1,1,0,1,0,0,0,0,0,0,0,0,0,0,0,1,0,0,1,0,0,1,1,1,0,1,0
388,kqeblz37dvpiwy7-l9VfXA,Ceviche7,,502 W 30th St,Austin,TX,78705,30.296361,-97.7414369,5,1,0,0,0,0,0,0,0,0,0,0,0,0,0,0,0,0,5,241,48.2,230,7,4,46,1.4,0.8,49,11,9,0,1,0,0,0,0,0,0,0,0,0,0,1,1,0,0,0,0,1,1,1,1,0,1,0
389,AqhAJk1OyupIaYjg0JpZlA,Chago's Caribbean Cuisine,,7301 N Lamar Blvd,Austin,TX,78752,30.340268,-97.716942,4.5,0,0,0,0,0,0,0,0,0,0,0,0,0,0,0,0,1,9,349,38.78,319,18,12,35.44,2,1.33,74,56,9,0,2,0,0,0,0,0,0,0,0,0,1,1,0,1,0,0,1,1,2,1,1,0,1,0
390,1IAZrHB3j5Svf_WsU3bQsQ,Champions Sports Bar,,300 East 4th Street,Austin,TX,78701,30.26572538,-97.7407828,2.5,1,0,0,0,0,0,0,0,0,0,0,0,0,0,0,0,0,13,74,5.69,27,35,12,2.08,2.69,0.92,17,8,6,0,2,1,1,0,0,0,0,0,0,0,0,1,0,0,1,1,1,1,3,1,1,0,1,0
391,V27X-uDnjHEirJkokT4ppg,Changos Taqueria,,3023 Guadalupe St,Austin,TX,78705,30.2970511,-97.7414801,3.5,0,1,0,0,0,0,0,0,0,0,0,0,0,0,0,0,0,14,36,2.57,23,7,6,1.64,0.5,0.43,5,3,4,1,1,1,1,0,0,0,0,0,0,0,0,1,0,1,0,0,1,1,2,1,1,0,1,0
392,XoZ_NZrRrIcpXgFciJysug,Charleys Philly Steaks,,"2901 S Capital Of Texas Hwy, Ste VC-07",Austin,TX,78746,30.257361,-97.807225,3,0,0,0,0,0,0,0,0,0,0,0,0,0,0,0,0,1,6,11,1.83,6,5,0,1,0.83,0,0,0,0,1,1,0,0,0,0,0,0,0,0,0,0,0,1,0,0,1,1,1,3,1,1,0,1,0
393,S9K4i93tUPa4roIr1pedlA,Charm Korean BBQ,,1200 W Howard Ln,Austin,TX,78753,30.425199,-97.670406,4,0,0,0,0,0,0,0,0,0,0,0,1,0,0,0,0,0,4,347,86.75,242,61,44,60.5,15.25,11,101,61,28,0,2,0,0,0,0,0,0,0,0,0,0,1,0,1,0,0,0,1,1,1,1,0,1,0
394,VWosj4B8FXWIMdThXb5G5A,Chavelos,,108 N Austin St,Buda,TX,78610,30.08185,-97.843955,3.5,0,1,0,0,0,0,0,0,0,0,0,0,0,0,0,0,0,11,55,5,31,16,8,2.82,1.45,0.73,19,15,6,0,1,1,1,0,0,0,0,0,0,0,0,1,0,0,1,1,1,1,3,1,1,0,1,0
395,qLIvRVoXp5b61owALFpblA,Cheddar's Scratch Kitchen,Cheddar's Scratch Kitchen,15119 Nb I35,Pflugerville,TX,78660,30.44453611,-97.66679291,2.5,1,0,0,0,0,0,0,0,0,0,0,0,0,0,0,0,0,13,186,14.31,53,114,19,4.08,8.77,1.46,57,28,23,0,2,1,1,0,0,0,0,0,0,0,0,1,0,0,1,0,1,1,2,1,1,1,1,0
396,RCmqDtxfl0poR8UnFORWyg,Cheddar's Scratch Kitchen,Cheddar's Scratch Kitchen,"4301 W. William Cannon Dr., Bldg D",Austin,TX,78749,30.21988531,-97.83850187,2.5,1,0,0,0,0,0,0,0,0,0,0,0,0,0,0,0,0,12,123,10.25,43,72,8,3.58,6,0.67,24,12,14,0,2,0,0,0,0,0,0,0,0,0,0,1,0,0,1,0,1,1,2,1,1,1,1,0
397,zyHMtStYlKG67WRprp6GZQ,Cheddar's Scratch Kitchen,Cheddar's Scratch Kitchen,13301 N. U.S. Hwy 183,Austin,TX,78750,30.44599059,-97.78781597,3.5,1,0,0,0,0,0,0,0,0,0,0,0,0,0,0,0,0,13,132,10.15,73,48,11,5.62,3.69,0.85,45,22,12,0,2,1,1,0,0,0,0,0,0,0,0,1,0,0,1,0,1,1,2,1,1,1,1,0
398,cjWJiayDTSQtBTgsndrQ2w,Cheer Up Charlie's,,900 Red River St,Austin,TX,78701,30.2696098,-97.7363583,4,0,0,0,0,0,0,0,0,0,0,0,0,0,0,0,0,1,6,81,13.5,64,15,2,10.67,2.5,0.33,9,12,2,1,2,1,1,0,1,0,1,0,0,0,0,1,0,0,1,0,0,1,1,1,1,0,1,0
399,ocFC2bOAKq_mbpiiAbO2Iw,Chef Gil's Catering,,,Austin,TX,78665,30.267153,-97.7430608,4.5,0,0,0,0,0,0,0,0,0,0,0,0,0,0,0,0,1,6,11,1.83,10,1,0,1.67,0.17,0,1,0,1,1,1,0,0,0,0,0,0,0,0,0,0,0,1,0,0,1,1,1,3,1,1,0,1,0
400,IMPUvXzYKkw55mirwg0tug,Cheke's Takos,,504 W Oltorf St,Austin,TX,78704,30.24187032,-97.75805824,4.5,0,1,0,0,0,0,0,0,0,0,0,0,0,0,0,0,0,5,10,2,10,0,0,2,0,0,1,2,0,1,1,1,1,0,0,0,0,0,0,0,0,0,1,0,0,0,0,1,1,1,1,0,0,2
401,JoZmPR16sGyP2nbTWHVY0A,Chekos,,1304 W Koenig Ln,Austin,TX,78757,30.330838,-97.7307858,3.5,0,1,0,0,0,0,0,0,0,0,0,0,0,0,0,0,0,13,76,5.85,45,23,8,3.46,1.77,0.62,28,12,2,1,1,0,0,0,0,0,0,0,0,0,0,1,0,0,1,1,1,1,3,1,1,0,1,0
402,gMkYOLKJYqjn5GWFmi5mqw,Chen Z,Chen Z Noodle House,2700 Anderson Ln,Austin,TX,78757,30.35846422,-97.73451948,4,0,0,0,0,1,0,0,0,0,0,0,0,0,0,0,0,0,7,104,14.86,62,21,21,8.86,3,3,19,22,6,0,2,0,0,0,0,0,0,0,1,0,0,0,0,1,0,0,0,1,1,1,1,1,1,0
403,v0i7m-V1oiBallbv308S4g,Chen Z Noodle House,Chen Z Noodle House,6705 W Hwy 290,Austin,TX,78735,30.23331769,-97.86593955,4,0,0,0,0,1,0,0,0,0,0,0,0,0,0,0,0,0,6,162,27,117,30,15,19.5,5,2.5,27,9,15,1,1,0,0,0,0,0,0,0,0,0,0,1,1,0,0,0,1,1,2,1,1,1,1,0
404,vzSXdDYtnm_F_x1hY2UVVw,Chen's Noodle House,Chen Z Noodle House,8650 Spicewood Springs Rd,Austin,TX,78759,30.432852,-97.770534,4,0,0,0,0,1,0,0,0,0,0,0,0,0,0,0,0,0,12,133,11.08,100,15,18,8.33,1.25,1.5,20,13,5,1,1,0,0,0,0,0,0,0,0,0,0,1,1,0,0,0,1,1,2,1,1,1,1,0
405,Bkf1orK8EPMFz813bdLRVQ,Cherry Creek Catfish,,5712 Manchaca Rd,Austin,TX,78745,30.21468921,-97.79938845,4,0,0,0,0,0,0,0,0,0,0,0,0,0,0,0,0,1,13,200,15.38,157,21,22,12.08,1.62,1.69,56,57,12,1,2,1,1,0,0,0,0,0,0,0,0,1,0,1,0,0,1,1,2,1,1,0,1,0
406,TQxHoUZNzVOoBnHm0aMkpA,Cherrywood Coffeehouse,,1400 E 38th 1/2 St,Austin,TX,78722,30.2935334,-97.716,4,0,0,0,0,0,0,0,0,0,0,0,0,0,0,0,0,1,11,316,28.73,231,42,43,21,3.82,3.91,73,47,16,1,1,1,1,0,1,0,0,0,0,0,1,1,0,1,0,1,1,1,3,1,1,0,1,0
407,4z8F9DRUTfHc4kBMlAR2Zg,Chew Chew BBQ,,3305 Ranch Rd 620 N,Austin,TX,78734,30.39411,-97.9337979,4,0,0,0,0,0,0,0,0,0,0,0,0,0,0,0,0,1,6,24,4,19,3,2,3.17,0.5,0.33,1,1,1,1,2,1,1,0,0,0,0,0,0,0,0,1,1,0,0,0,1,0,1,1,1,0,1,0
408,BomU5ZTro4yjB4RLcLgzFg,Chez Nous,,510 Neches St,Austin,TX,78701,30.2664655,-97.7385951,4.5,0,0,0,0,0,0,0,1,0,0,0,0,0,0,0,0,0,15,113,7.53,89,17,7,5.93,1.13,0.47,21,21,8,0,3,0,0,0,0,0,0,1,0,0,1,0,0,1,0,0,0,1,1,1,1,0,1,0
409,zE0EGIsOdAO83xE3CypN-A,Chez Zee American Bistro,,5406 Balcones Dr,Austin,TX,78731,30.3367272,-97.7579259,3.5,1,0,0,0,0,0,0,0,0,0,0,0,0,0,0,0,0,14,299,21.36,212,62,25,15.14,4.43,1.79,68,50,19,1,2,1,1,0,0,1,0,0,0,0,1,0,0,0,1,0,1,1,2,1,1,0,1,0
410,Fol8oCtBBdRbEyt85QJMSQ,Chi Chinese Buffet,,"9900 S I-h 35, Bldg O, Ste 500",Austin,TX,78748,30.15391298,-97.793355,2,0,0,0,0,1,0,0,0,0,0,0,0,0,0,0,0,0,10,46,4.6,6,38,2,0.6,3.8,0.2,5,1,9,0,2,0,0,0,0,0,0,0,0,0,0,1,0,0,1,0,1,1,2,1,1,0,0,2
411,hI9SS8or178ESYI3g8o4cA,Chicken Bowl,,1610 Lavaca St,Austin,TX,78701,30.278979,-97.7417233,4,0,1,0,0,0,0,0,0,0,0,0,0,0,0,0,0,0,13,16,1.23,13,2,1,1,0.15,0.08,0,1,1,0,1,0,0,0,0,0,0,0,0,0,0,0,1,0,0,0,0,0,0,0,1,0,1,0
412,#NAME?,Chicken Express,Chicken Express,"8300 N Fm 620, Bldg H",Austin,TX,78726,30.421286,-97.846105,3.5,0,0,0,0,0,0,0,0,0,0,0,0,0,0,0,0,1,7,45,6.43,25,15,5,3.57,2.14,0.71,7,8,2,1,1,0,0,0,0,0,0,0,0,0,0,1,1,0,0,0,0,1,1,1,1,1,1,0
413,MDsigaQz16cS9OyP7mKsWQ,Chicken Express,Chicken Express,5493 Kyle Center Dr,Kyle,TX,78640,30.0110531,-97.862867,2.5,0,0,0,0,0,0,0,0,0,0,0,0,0,0,0,0,1,7,23,3.29,9,13,1,1.29,1.86,0.14,3,2,3,0,1,1,1,0,0,0,0,0,0,0,0,1,1,0,0,0,0,0,0,0,1,1,1,0
414,JLiXL8ihvIekx9F7G0npNA,Chicken Express,Chicken Express,2109 Ranch Rd 620 S,Austin,TX,78734,30.3426512,-97.9673417,3.5,0,0,0,0,0,0,0,0,0,0,0,0,0,0,0,0,1,6,19,3.17,15,4,0,2.5,0.67,0,7,1,1,0,1,0,0,0,0,0,0,0,0,0,0,0,1,0,0,0,0,0,0,0,1,1,1,0
415,Z30a5nwryTZWjFjNqwaAiQ,Chicken Express - Dripping Springs,Chicken Express,230 US Hwy 290,Dripping Springs,TX,78620,30.190336,-98.085301,3,1,0,0,0,0,0,0,0,0,0,0,0,0,0,0,0,0,6,20,3.33,7,11,2,1.17,1.83,0.33,5,1,2,0,1,1,1,0,0,0,0,0,0,0,0,1,1,0,0,0,0,1,1,1,1,1,1,0
416,qpisyoF8L6s2vCS55AYsfA,Chicken Lollypop,,"1005 E Braker Ln, Ste 3",Austin,TX,78753,30.37479805,-97.67238092,4.5,0,0,0,0,1,0,0,0,0,0,1,0,0,0,0,0,0,6,132,22,105,22,5,17.5,3.67,0.83,33,8,4,0,1,0,0,0,0,0,0,0,0,0,0,1,0,1,0,0,1,1,2,1,1,0,0,2
417,bawpjEHejWxh2cm2RrBiTg,Chick-fil-A,Chick-fil-A,503 W Martin Luther King Jr Blvd,Austin,TX,78701,30.2817267,-97.7431556,3.5,1,0,0,0,0,0,0,0,0,0,0,0,0,0,0,0,0,13,74,5.69,38,28,8,2.92,2.15,0.62,11,9,3,1,1,1,1,0,0,0,0,0,0,0,0,1,1,0,0,1,1,1,3,1,1,1,1,0
418,Gppo0_VR27gZ7CvrwskjqQ,Chick-fil-A,Chick-fil-A,12501 N Mo Pac Expy,Austin,TX,78758,30.4190151,-97.703302,3,0,0,0,0,0,0,0,0,0,0,0,0,0,0,0,0,1,14,66,4.71,24,38,4,1.71,2.71,0.29,4,9,2,1,1,0,0,0,0,0,0,0,0,0,0,1,1,0,0,1,1,1,3,1,1,1,1,0
